[{"name": "Stop N Grab", "lat": 41.51, "lng": -75.613, "state": "Pennsylvania"},{"name": "Stop N Grab", "lat": 40.1115455, "lng": -75.0235519, "state": "Pennsylvania"},{"name": "Stop N Grab", "lat": 39.941, "lng": -75.272415, "state": "Pennsylvania"},{"name": "Stop N Grab", "lat": 40.12744, "lng": -75.40593, "state": "Pennsylvania"},{"name": "Stop N Grab", "lat": 40.03934539999999, "lng": -76.30583759999999, "state": "Pennsylvania"},{"name": "Stop N Grab", "lat": 40.288159, "lng": -76.836589, "state": "Pennsylvania"},{"name": "Stop N Grab", "lat": 40.3060972, "lng": -76.8052536, "state": "Pennsylvania"},{"name": "Stop N Grab", "lat": 40.2375951, "lng": -76.97122159999999, "state": "Pennsylvania"},{"name": "Stop N Grab", "lat": 40.471594, "lng": -80.02724839999999, "state": "Pennsylvania"},{"name": "Stop N Grab", "lat": 40.4948164, "lng": -79.9367152, "state": "Pennsylvania"},{"name": "Stop N Grab", "lat": 42.1106151, "lng": -80.0557362, "state": "Pennsylvania"},{"name": "Stop N Grab", "lat": 40.1415172, "lng": -75.1674772, "state": "Pennsylvania"},{"name": "Stop N Grab", "lat": 40.451212, "lng": -74.1341621, "state": "New"},{"name": "Stop N Grab", "lat": 40.6438596, "lng": -74.21259189999999, "state": "New"},{"name": "Stop N Grab", "lat": 40.9329188, "lng": -74.26986289999999, "state": "New"},{"name": "Stop N Grab", "lat": 39.3624673, "lng": -74.61850249999999, "state": "Harbor"},{"name": "Stop N Grab", "lat": 40.3443503, "lng": -75.6271266, "state": "Pennsylvania"},{"name": "Stop N Grab", "lat": 39.7860398, "lng": -75.5453893, "state": "Delaware"},{"name": "Stop N Grab", "lat": 40.3318851, "lng": -75.6397878, "state": "Pennsylvania"},{"name": "Stop N Grab", "lat": 39.7076314, "lng": -75.4698174, "state": "Grove,"},{"name": "Stop N Grab", "lat": 40.3133978, "lng": -74.0251598, "state": "New"},{"name": "Stop N Grab", "lat": 40.9557413, "lng": -74.0308531, "state": "New"},{"name": "Stop N Grab", "lat": 40.8545001, "lng": -74.07220869999999, "state": "Heights,"},{"name": "Stop N Grab", "lat": 40.25355649999999, "lng": -75.65484409999999, "state": "Pennsylvania"},{"name": "Stop N Grab", "lat": 40.6223375, "lng": -74.30490850000001, "state": "New"},{"name": "Stop N Grab", "lat": 40.6758067, "lng": -74.1045078, "state": "New"},{"name": "Stop N Grab", "lat": 40.3864826, "lng": -74.5702232, "state": "Junction,"},{"name": "Stop N Grab", "lat": 40.9608679, "lng": -74.2409732, "state": "New"},{"name": "Stop N Grab", "lat": 39.5685718, "lng": -74.3703062, "state": "Egg"},{"name": "Stop N Grab", "lat": 40.0460678, "lng": -75.42399019999999, "state": "Pennsylvania"},{"name": "Stop N Grab", "lat": 39.8163799, "lng": -75.4585752, "state": "Delaware"},{"name": "Stop N Grab", "lat": 40.581758, "lng": -74.3318532, "state": "Township,"},{"name": "Stop N Grab", "lat": 40.9137079, "lng": -74.5772325, "state": "New"},{"name": "Stop N Grab", "lat": 40.3534349, "lng": -74.30608, "state": "Marlboro,"},{"name": "Stop N Grab", "lat": 39.3592128, "lng": -74.4369269, "state": "City,"},{"name": "Stop N Grab", "lat": 39.9166531, "lng": -74.15403289999999, "state": "Berkeley"},{"name": "Stop N Grab", "lat": 40.32846989999999, "lng": -75.33354899999999, "state": "Pennsylvania"},{"name": "Stop N Grab", "lat": 39.6015398, "lng": -74.3598277, "state": "Egg"},{"name": "Stop N Grab", "lat": 40.0069111, "lng": -74.2420945, "state": "River,"},{"name": "Stop N Grab", "lat": 40.6173498, "lng": -74.2509255, "state": "New"},{"name": "Stop N Grab", "lat": 39.7307929, "lng": -74.2939504, "state": "Stafford"},{"name": "Stop N Grab", "lat": 40.2922066, "lng": -74.8726028, "state": "Crossing,"},{"name": "Stop N Grab", "lat": 40.8638989, "lng": -74.1063667, "state": "New"},{"name": "Stop N Grab", "lat": 40.591379, "lng": -74.3229182, "state": "Woodbridge"},{"name": "Stop N Grab", "lat": 40.09848880000001, "lng": -74.04998309999999, "state": "Pleasant"},{"name": "Stop N Grab", "lat": 40.6505776, "lng": -74.1949355, "state": "New"},{"name": "Stop N Grab", "lat": 40.0812343, "lng": -74.1579939, "state": "New"},{"name": "Stop N Grab", "lat": 40.6337313, "lng": -74.23722099999999, "state": "New"},{"name": "Stop N Grab", "lat": 40.029592, "lng": -75.68402069999999, "state": "Pennsylvania"},{"name": "Stop N Grab", "lat": 40.40043490000001, "lng": -73.9848366, "state": "New"},{"name": "Stop N Grab", "lat": 41.038155, "lng": -74.70193309999999, "state": "New"},{"name": "Stop N Grab", "lat": 39.272249, "lng": -76.6305139, "state": "Maryland"},{"name": "Stop N Grab", "lat": 39.2371701, "lng": -76.6624271, "state": "Maryland"},{"name": "Stop N Grab", "lat": 39.3429286, "lng": -76.6405954, "state": "Maryland"},{"name": "Stop N Grab", "lat": 40.5888418, "lng": -73.6579412, "state": "Beach,"},{"name": "Stop N Grab", "lat": 39.4191477, "lng": -76.6691243, "state": "Maryland"},{"name": "Stop N Grab", "lat": 26.6815107, "lng": -81.8041853, "state": "Myers,"},{"name": "Stop N Grab", "lat": 28.1470865, "lng": -80.671303, "state": "Florida"},{"name": "Stop N Grab", "lat": 26.724141, "lng": -80.06619239999999, "state": "Palm"},{"name": "Stop N Grab", "lat": 28.2542869, "lng": -81.31846709999999, "state": "Cloud,"},{"name": "Stop N Grab", "lat": 26.6185958, "lng": -80.105837, "state": "Springs,"},{"name": "Stop N Grab", "lat": 26.9338937, "lng": -80.0951288, "state": "Florida"},{"name": "Stop N Grab", "lat": 28.138588, "lng": -80.591228, "state": "Florida"},{"name": "Stop N Grab", "lat": 28.078973, "lng": -80.69975699999999, "state": "Florida"},{"name": "Stop N Grab", "lat": 27.9778626, "lng": -81.7837785, "state": "Haven,"},{"name": "Stop N Grab", "lat": 27.9963641, "lng": -81.6881147, "state": "Haven,"},{"name": "Stop N Grab", "lat": 26.6822157, "lng": -81.79356179999999, "state": "Myers,"},{"name": "Stop N Grab", "lat": 27.2506073, "lng": -80.3761626, "state": "St."},{"name": "Stop N Grab", "lat": 27.1341022, "lng": -80.2079432, "state": "Salerno,"},{"name": "Stop N Grab", "lat": 26.628171, "lng": -80.08840769999999, "state": "Springs,"},{"name": "Stop N Grab", "lat": 27.4439632, "lng": -80.34088899999999, "state": "Pierce,"},{"name": "Stop N Grab", "lat": 28.1724604, "lng": -80.6715222, "state": "Florida"},{"name": "Stop N Grab", "lat": 28.0117108, "lng": -81.7264053, "state": "Haven,"},{"name": "Stop N Grab", "lat": 27.3346896, "lng": -80.3543321, "state": "St."},{"name": "Stop N Grab", "lat": 28.2453526, "lng": -81.2763679, "state": "Cloud,"},{"name": "Stop N Grab", "lat": 26.94149, "lng": -80.103904, "state": "Florida"},{"name": "Stop N Grab", "lat": 27.425377, "lng": -80.360474, "state": "Pierce,"},{"name": "Stop N Grab", "lat": 27.9157104, "lng": -81.7185767, "state": "Florida"},{"name": "Stop N Grab", "lat": 27.2727007, "lng": -80.3411052, "state": "St."},{"name": "Stop N Grab", "lat": 28.02771, "lng": -80.622059, "state": "Bay,"},{"name": "Stop N Grab", "lat": 26.7802428, "lng": -80.2934423, "state": "Florida"},{"name": "Stop N Grab", "lat": 27.0979775, "lng": -80.15775909999999, "state": "Sound,"},{"name": "Stop N Grab", "lat": 26.590248, "lng": -80.186514, "state": "Worth,"},{"name": "Stop N Grab", "lat": 27.258106, "lng": -80.37504200000001, "state": "St."},{"name": "Stop N Grab", "lat": 26.6118471, "lng": -81.8087092, "state": "Myers,"},{"name": "Stop N Grab", "lat": 26.7164343, "lng": -81.4369766, "state": "Florida"},{"name": "Stop N Grab", "lat": 26.93404, "lng": -80.108218, "state": "Florida"},{"name": "Stop N Grab", "lat": 27.245713, "lng": -80.84899899999999, "state": "Florida"},{"name": "Stop N Grab", "lat": 26.606145, "lng": -81.64915700000002, "state": "Acres,"},{"name": "Stop N Grab", "lat": 27.4296553, "lng": -81.4173194, "state": "Florida"},{"name": "Stop N Grab", "lat": 26.547496, "lng": -81.79988399999999, "state": "Myers,"},{"name": "Stop N Grab", "lat": 28.2128536, "lng": -81.29227809999999, "state": "Cloud,"},{"name": "Stop N Grab", "lat": 27.472005, "lng": -81.444035, "state": "Florida"},{"name": "Stop N Grab", "lat": 27.4705816, "lng": -81.4862108, "state": "Florida"},{"name": "Stop N Grab", "lat": 27.8328557, "lng": -81.58926890000001, "state": "Wales,"},{"name": "Stop N Grab", "lat": 27.6061797, "lng": -81.5138734, "state": "Park,"},{"name": "Stop N Grab", "lat": 27.277951, "lng": -80.82920349999999, "state": "Florida"},{"name": "Stop N Grab", "lat": 27.5487725, "lng": -81.80052429999999, "state": "Florida"},{"name": "Stop N Grab", "lat": 28.0353075, "lng": -80.604809, "state": "Bay,"},{"name": "Stop N Grab", "lat": 27.2933708, "lng": -80.4334804, "state": "St."},{"name": "Stop N Grab", "lat": 28.2309367, "lng": -80.7214103, "state": "Florida"},{"name": "Stop N Grab", "lat": 27.9868545, "lng": -80.6490973, "state": "Bay,"},{"name": "Stop N Grab", "lat": 28.1803656, "lng": -81.2829545, "state": "Cloud,"},{"name": "Stop N Grab", "lat": 27.5959765, "lng": -81.51508369999999, "state": "Park,"},{"name": "Stop N Grab", "lat": 27.208362, "lng": -81.328774, "state": "Placid,"},{"name": "Stop N Grab", "lat": 26.7610743, "lng": -81.4499675, "state": "Florida"},{"name": "Stop N Grab", "lat": 27.5210691, "lng": -81.45324579999999, "state": "Florida"},{"name": "Stop N Grab", "lat": 27.0222922, "lng": -80.4686249, "state": "Florida"},{"name": "Stop N Grab", "lat": 27.496133, "lng": -81.796369, "state": "Springs,"},{"name": "Stop N Grab", "lat": 27.9986145, "lng": -80.69647549999999, "state": "Bay,"},{"name": "Stop N Grab", "lat": 28.15717, "lng": -80.64205989999999, "state": "Florida"},{"name": "Stop N Grab", "lat": 27.7536448, "lng": -81.8011672, "state": "Meade,"},{"name": "Stop N Grab", "lat": 28.2536929, "lng": -81.657887, "state": "Florida"},{"name": "Stop N Grab", "lat": 28.0420052, "lng": -81.6202727, "state": "Hamilton,"},{"name": "Stop N Grab", "lat": 27.3173804, "lng": -80.3490099, "state": "St."},{"name": "Stop N Grab", "lat": 27.5959982, "lng": -81.51492370000001, "state": "Park,"},{"name": "Stop N Grab", "lat": 30.291861, "lng": -81.72984989999999, "state": "Jacksonville,"},{"name": "Stop N Grab", "lat": 30.1710475, "lng": -81.5433122, "state": "Jacksonville,"},{"name": "Stop N Grab", "lat": 30.2174215, "lng": -81.5851509, "state": "Center,"},{"name": "Stop N Grab", "lat": 30.1644089, "lng": -81.735765, "state": "Park,"},{"name": "Stop N Grab", "lat": 29.6184243, "lng": -82.3829301, "state": "Florida"},{"name": "Stop N Grab", "lat": 30.3101354, "lng": -81.70568689999999, "state": "Jacksonville,"},{"name": "Stop N Grab", "lat": 30.269485, "lng": -81.736007, "state": "Jacksonville,"},{"name": "Stop N Grab", "lat": 30.2398932, "lng": -81.6956921, "state": "Jacksonville,"},{"name": "Stop N Grab", "lat": 30.2745086, "lng": -81.5598526, "state": "Jacksonville,"},{"name": "Stop N Grab", "lat": 30.2210276, "lng": -81.5933438, "state": "Jacksonville,"},{"name": "Stop N Grab", "lat": 30.2701818, "lng": -81.7724399, "state": "Jacksonville,"},{"name": "Stop N Grab", "lat": 30.3008214, "lng": -81.5251385, "state": "Jacksonville,"},{"name": "Stop N Grab", "lat": 30.165056, "lng": -81.601963, "state": "Jacksonville,"},{"name": "Stop N Grab", "lat": 30.35413629999999, "lng": -81.4133793, "state": "Beach,"},{"name": "Stop N Grab", "lat": 30.2484234, "lng": -81.7854492, "state": "Heights,"},{"name": "Stop N Grab", "lat": 30.186273, "lng": -81.7252563, "state": "Park,"},{"name": "Stop N Grab", "lat": 29.6221447, "lng": -82.3721478, "state": "Florida"},{"name": "Stop N Grab", "lat": 30.0825969, "lng": -81.6392285, "state": "Cove,"},{"name": "Stop N Grab", "lat": 30.3650255, "lng": -81.5023056, "state": "Hills,"},{"name": "Stop N Grab", "lat": 30.1926467, "lng": -81.7515442, "state": "Jacksonville,"},{"name": "Stop N Grab", "lat": 29.9172603, "lng": -81.408228, "state": "Augustine,"},{"name": "Stop N Grab", "lat": 30.1774913, "lng": -81.5519707, "state": "Jacksonville,"},{"name": "Stop N Grab", "lat": 29.6525658, "lng": -82.311381, "state": "Florida"},{"name": "Stop N Grab", "lat": 30.2882033, "lng": -81.45846569999999, "state": "Glades/The"},{"name": "Stop N Grab", "lat": 30.0653079, "lng": -81.5004098, "state": "Johns,"},{"name": "Stop N Grab", "lat": 30.4163551, "lng": -81.749495, "state": "Jacksonville,"},{"name": "Stop N Grab", "lat": 29.2661833, "lng": -82.1940426, "state": "Florida"},{"name": "Stop N Grab", "lat": 29.185966, "lng": -82.1795188, "state": "Florida"},{"name": "Stop N Grab", "lat": 29.5996208, "lng": -82.42093419999999, "state": "Florida"},{"name": "Stop N Grab", "lat": 29.6885706, "lng": -82.4423735, "state": "Florida"},{"name": "Stop N Grab", "lat": 30.1859859, "lng": -81.6287239, "state": "Park,"},{"name": "Stop N Grab", "lat": 30.3249413, "lng": -81.40672099999999, "state": "Beach,"},{"name": "Stop N Grab", "lat": 29.6593102, "lng": -82.42284149999999, "state": "Florida"},{"name": "Stop N Grab", "lat": 30.5984533, "lng": -81.5983917, "state": "Florida"},{"name": "Stop N Grab", "lat": 29.7071431, "lng": -82.35655419999999, "state": "Florida"},{"name": "Stop N Grab", "lat": 29.6736883, "lng": -82.3887282, "state": "Florida"},{"name": "Stop N Grab", "lat": 30.1934195, "lng": -81.74021549999999, "state": "Jacksonville,"},{"name": "Stop N Grab", "lat": 30.2621302, "lng": -81.7808617, "state": "Heights,"},{"name": "Stop N Grab", "lat": 30.2876898, "lng": -81.56326849999999, "state": "Hill,"},{"name": "Stop N Grab", "lat": 30.3185311, "lng": -81.47342119999999, "state": "Arlington,"},{"name": "Stop N Grab", "lat": 30.2818401, "lng": -81.5247211, "state": "Pareil,"},{"name": "Stop N Grab", "lat": 30.2064526, "lng": -81.5979292, "state": "Jacksonville,"},{"name": "Stop N Grab", "lat": 29.1480651, "lng": -82.1882895, "state": "Florida"},{"name": "Stop N Grab", "lat": 29.7022647, "lng": -82.278336, "state": "Florida"},{"name": "Stop N Grab", "lat": 30.372889, "lng": -81.65180600000001, "state": "Jacksonville,"},{"name": "Stop N Grab", "lat": 30.3367581, "lng": -81.730581, "state": "Jacksonville,"},{"name": "Stop N Grab", "lat": 30.2937664, "lng": -81.7775315, "state": "Jacksonville,"},{"name": "Stop N Grab", "lat": 29.98557649999999, "lng": -81.6956594, "state": "Cove"},{"name": "Stop N Grab", "lat": 29.1369984, "lng": -81.0112182, "state": "Orange,"},{"name": "Stop N Grab", "lat": 29.1158742, "lng": -82.220545, "state": "Florida"},{"name": "Stop N Grab", "lat": 30.0400808, "lng": -82.1651474, "state": "Florida"},{"name": "Stop N Grab", "lat": 30.0373862, "lng": -81.8978384, "state": "Florida"},{"name": "Stop N Grab", "lat": 30.0685929, "lng": -81.70671159999999, "state": "Island,"},{"name": "Stop N Grab", "lat": 29.6420021, "lng": -81.6768555, "state": "Florida"},{"name": "Stop N Grab", "lat": 29.72214099999999, "lng": -82.2613634, "state": "Florida"},{"name": "Stop N Grab", "lat": 30.4906748, "lng": -81.6244237, "state": "Jacksonville,"},{"name": "Stop N Grab", "lat": 30.39533639999999, "lng": -81.4378859, "state": "George"},{"name": "Stop N Grab", "lat": 28.9813693, "lng": -82.0095834, "state": "Villages,"},{"name": "Stop N Grab", "lat": 30.4816727, "lng": -81.64809, "state": "Jacksonville,"},{"name": "Stop N Grab", "lat": 29.1859005, "lng": -82.218004, "state": "Florida"},{"name": "Stop N Grab", "lat": 37.2589478, "lng": -77.4000097, "state": "Heights,"},{"name": "Stop N Grab", "lat": 37.76023500000001, "lng": -77.45493139999999, "state": "Virginia"},{"name": "Stop N Grab", "lat": 36.6662581, "lng": -76.9564295, "state": "Virginia"},{"name": "Stop N Grab", "lat": 37.7588293, "lng": -77.4645458, "state": "Virginia"},{"name": "Stop N Grab", "lat": 37.4835225, "lng": -76.91143799999999, "state": "Virginia"},{"name": "Stop N Grab", "lat": 36.7764775, "lng": -76.3388405, "state": "Virginia"},{"name": "Stop N Grab", "lat": 36.7302846, "lng": -76.597173, "state": "Virginia"},{"name": "Stop N Grab", "lat": 37.7602609, "lng": -77.45489859999999, "state": "Virginia"},{"name": "Stop N Grab", "lat": 36.8491047, "lng": -76.03303319999999, "state": "Beach,"},{"name": "Stop N Grab", "lat": 36.7759255, "lng": -76.44507159999999, "state": "Virginia"},{"name": "Stop N Grab", "lat": 37.2262438, "lng": -77.40263350000001, "state": "Virginia"},{"name": "Stop N Grab", "lat": 37.5350109, "lng": -77.5617875, "state": "Air,"},{"name": "Stop N Grab", "lat": 36.7207836, "lng": -78.1190682, "state": "Hill,"},{"name": "Stop N Grab", "lat": 37.1133435, "lng": -76.4700276, "state": "Virginia"},{"name": "Stop N Grab", "lat": 36.0002759, "lng": -75.6533362, "state": "Devil"},{"name": "Stop N Grab", "lat": 36.0127085, "lng": -75.66103799999999, "state": "Devil"},{"name": "Stop N Grab", "lat": 36.0124457, "lng": -77.8606549, "state": "Mount,"},{"name": "Stop N Grab", "lat": 36.0340853, "lng": -75.6736018, "state": "Devil"},{"name": "Stop N Grab", "lat": 35.9640339, "lng": -77.8196438, "state": "Mount,"},{"name": "Stop N Grab", "lat": 35.9857049, "lng": -77.78479370000001, "state": "Mount,"},{"name": "Stop N Grab", "lat": 35.9506095, "lng": -77.81842639999999, "state": "Mount,"},{"name": "Stop N Grab", "lat": 36.776525, "lng": -76.3388666, "state": "Virginia"},{"name": "Stop N Grab", "lat": 38.47072989999999, "lng": -77.41312119999999, "state": "Virginia"},{"name": "Stop N Grab", "lat": 37.5620068, "lng": -77.4700094, "state": "Virginia"},{"name": "Stop N Grab", "lat": 39.1994804, "lng": -76.81471789999999, "state": "Maryland"},{"name": "Stop N Grab", "lat": 39.25201920000001, "lng": -76.81647009999999, "state": "City,"},{"name": "Stop N Grab", "lat": 38.8418291, "lng": -76.7278671, "state": "Marlboro,"},{"name": "Stop N Grab", "lat": 39.7860398, "lng": -75.5453893, "state": "Delaware"},{"name": "Stop N Grab", "lat": 39.272249, "lng": -76.6305139, "state": "Maryland"},{"name": "Stop N Grab", "lat": 39.7076314, "lng": -75.4698174, "state": "Grove,"},{"name": "Stop N Grab", "lat": 39.2371701, "lng": -76.6624271, "state": "Maryland"},{"name": "Stop N Grab", "lat": 40.0460678, "lng": -75.42399019999999, "state": "Pennsylvania"},{"name": "Stop N Grab", "lat": 39.8163799, "lng": -75.4585752, "state": "Delaware"},{"name": "Stop N Grab", "lat": 39.1809928, "lng": -77.2616182, "state": "Maryland"},{"name": "Stop N Grab", "lat": 38.47072989999999, "lng": -77.41312119999999, "state": "Virginia"},{"name": "Stop N Grab", "lat": 38.8287027, "lng": -77.4397953, "state": "Virginia"},{"name": "Stop N Grab", "lat": 39.4191477, "lng": -76.6691243, "state": "Maryland"},{"name": "Stop N Grab", "lat": 39.3429286, "lng": -76.6405954, "state": "Maryland"},{"name": "Stop N Grab", "lat": 38.4750405, "lng": -77.4182898, "state": "Virginia"},{"name": "Stop N Grab", "lat": 39.4863804, "lng": -77.3415574, "state": "Maryland"},{"name": "Stop N Grab", "lat": 40.029592, "lng": -75.68402069999999, "state": "Pennsylvania"},{"name": "Stop N Grab", "lat": 39.0492175, "lng": -77.4537739, "state": "Virginia"},{"name": "Stop N Grab", "lat": 39.4861677, "lng": -77.3419318, "state": "Maryland"},{"name": "Stop N Grab", "lat": 38.7714389, "lng": -77.4532404, "state": "Park,"},{"name": "Stop N Grab", "lat": 39.2094226, "lng": -76.8010257, "state": "Maryland"},{"name": "Stop N Grab", "lat": 38.7408359, "lng": -77.45225359999999, "state": "Virginia"},{"name": "Stop N Grab", "lat": 38.4706086, "lng": -77.4129944, "state": "Virginia"},{"name": "Stop N Grab", "lat": 40.029592, "lng": -75.68402069999999, "state": "Pennsylvania"},{"name": "Stop N Grab", "lat": 38.8670037, "lng": -77.2740197, "state": "Virginia"},{"name": "Stop N Grab", "lat": 38.841143, "lng": -76.7279269, "state": "Marlboro,"},{"name": "Stop N Grab", "lat": 40.1415172, "lng": -75.1674772, "state": "Pennsylvania"},{"name": "Stop N Grab", "lat": 38.47068790000001, "lng": -77.4127433, "state": "Virginia"},{"name": "Stop N Grab", "lat": 40.25355649999999, "lng": -75.65484409999999, "state": "Pennsylvania"},{"name": "Stop N Grab", "lat": 40.32846989999999, "lng": -75.33354899999999, "state": "Pennsylvania"},{"name": "Stop N Grab", "lat": 39.1994804, "lng": -76.81471789999999, "state": "Maryland"},{"name": "Stop N Grab", "lat": 39.25201920000001, "lng": -76.81647009999999, "state": "City,"},{"name": "Stop N Grab", "lat": 38.8418291, "lng": -76.7278671, "state": "Marlboro,"},{"name": "Stop N Grab", "lat": 39.272249, "lng": -76.6305139, "state": "Maryland"},{"name": "Stop N Grab", "lat": 38.9259134, "lng": -78.19349969999999, "state": "Royal,"},{"name": "Stop N Grab", "lat": 39.2371701, "lng": -76.6624271, "state": "Maryland"},{"name": "Stop N Grab", "lat": 38.7286678, "lng": -77.8020003, "state": "Virginia"},{"name": "Stop N Grab", "lat": 39.0492175, "lng": -77.4537739, "state": "Virginia"},{"name": "Stop N Grab", "lat": 39.1809928, "lng": -77.2616182, "state": "Maryland"},{"name": "Stop N Grab", "lat": 38.47072989999999, "lng": -77.41312119999999, "state": "Virginia"},{"name": "Stop N Grab", "lat": 38.8287027, "lng": -77.4397953, "state": "Virginia"},{"name": "Stop N Grab", "lat": 39.4191477, "lng": -76.6691243, "state": "Maryland"},{"name": "Stop N Grab", "lat": 38.7714389, "lng": -77.4532404, "state": "Park,"},{"name": "Stop N Grab", "lat": 39.3429286, "lng": -76.6405954, "state": "Maryland"},{"name": "Stop N Grab", "lat": 39.1515743, "lng": -77.9830618, "state": "Virginia"},{"name": "Stop N Grab", "lat": 38.4750405, "lng": -77.4182898, "state": "Virginia"},{"name": "Stop N Grab", "lat": 39.4863804, "lng": -77.3415574, "state": "Maryland"},{"name": "Stop N Grab", "lat": 39.2105935, "lng": -78.1788832, "state": "Virginia"},{"name": "Stop N Grab", "lat": 39.4861677, "lng": -77.3419318, "state": "Maryland"},{"name": "Stop N Grab", "lat": 38.7408359, "lng": -77.45225359999999, "state": "Virginia"},{"name": "Stop N Grab", "lat": 39.2094226, "lng": -76.8010257, "state": "Maryland"},{"name": "Stop N Grab", "lat": 38.4706086, "lng": -77.4129944, "state": "Virginia"},{"name": "Stop N Grab", "lat": 38.8670037, "lng": -77.2740197, "state": "Virginia"},{"name": "Stop N Grab", "lat": 39.159721, "lng": -78.15132489999999, "state": "Park,"},{"name": "Stop N Grab", "lat": 38.841143, "lng": -76.7279269, "state": "Marlboro,"},{"name": "Stop N Grab", "lat": 38.0666279, "lng": -78.46558639999999, "state": "Virginia"},{"name": "Stop N Grab", "lat": 38.660378, "lng": -78.49061979999999, "state": "Virginia"},{"name": "Stop N Grab", "lat": 38.47068790000001, "lng": -77.4127433, "state": "Virginia"},{"name": "Stop N Grab", "lat": 39.0294028, "lng": -77.4884297, "state": "Virginia"},{"name": "Stop N Grab", "lat": 38.7282561, "lng": -77.80182479999999, "state": "Virginia"},{"name": "Stop N Grab", "lat": 38.7544885, "lng": -78.6339993, "state": "Jackson,"},{"name": "Stop N Grab", "lat": 33.9387976, "lng": -80.98013949999999, "state": "South"},{"name": "Stop N Grab", "lat": 34.1228883, "lng": -80.8736047, "state": "South"},{"name": "Stop N Grab", "lat": 34.0839817, "lng": -80.93814270000001, "state": "South"},{"name": "Stop N Grab", "lat": 34.0125144, "lng": -81.0430612, "state": "South"},{"name": "Stop N Grab", "lat": 34.1394233, "lng": -80.91491289999999, "state": "South"},{"name": "Stop N Grab", "lat": 33.9541682, "lng": -80.9249954, "state": "South"},{"name": "Stop N Grab", "lat": 33.9875125, "lng": -80.9882083, "state": "South"},{"name": "Stop N Grab", "lat": 33.9815134, "lng": -80.96463659999999, "state": "South"},{"name": "Stop N Grab", "lat": 34.0183316, "lng": -80.9669155, "state": "South"},{"name": "Stop N Grab", "lat": 34.1126581, "lng": -80.9481907, "state": "South"},{"name": "Stop N Grab", "lat": 34.0331076, "lng": -81.12331590000001, "state": "South"},{"name": "Stop N Grab", "lat": 34.161022, "lng": -80.92976000000002, "state": "South"},{"name": "Stop N Grab", "lat": 33.9835417, "lng": -81.0971295, "state": "Columbia,"},{"name": "Stop N Grab", "lat": 34.0489912, "lng": -81.10426079999999, "state": "South"},{"name": "Stop N Grab", "lat": 34.9516208, "lng": -81.06154769999999, "state": "Hill,"},{"name": "Stop N Grab", "lat": 33.9982599, "lng": -81.07779099999999, "state": "Columbia,"},{"name": "Stop N Grab", "lat": 34.05257170000001, "lng": -81.1580874, "state": "South"},{"name": "Stop N Grab", "lat": 33.5773182, "lng": -81.7693916, "state": "South"},{"name": "Stop N Grab", "lat": 34.1003079, "lng": -81.17828399999999, "state": "South"},{"name": "Stop N Grab", "lat": 34.922976, "lng": -80.7381058, "state": "North"},{"name": "Stop N Grab", "lat": 34.0042645, "lng": -81.1114698, "state": "Columbia,"},{"name": "Stop N Grab", "lat": 33.8803979, "lng": -81.04095269999999, "state": "Columbia,"},{"name": "Stop N Grab", "lat": 34.0253453, "lng": -81.0789527, "state": "South"},{"name": "Stop N Grab", "lat": 33.6627344, "lng": -81.6749052, "state": "South"},{"name": "Stop N Grab", "lat": 34.1665193, "lng": -81.3539091, "state": "South"},{"name": "Stop N Grab", "lat": 33.9722193, "lng": -81.1433589, "state": "Columbia,"},{"name": "Stop N Grab", "lat": 34.0975393, "lng": -80.8556388, "state": "South"},{"name": "Stop N Grab", "lat": 34.08578000000001, "lng": -80.93482999999999, "state": "South"},{"name": "Stop N Grab", "lat": 33.5771689, "lng": -81.70356799999999, "state": "South"},{"name": "Stop N Grab", "lat": 34.0089395, "lng": -81.25774539999999, "state": "South"},{"name": "Stop N Grab", "lat": 34.1763182, "lng": -79.8100157, "state": "South"},{"name": "Stop N Grab", "lat": 33.955818, "lng": -81.2319725, "state": "South"},{"name": "Stop N Grab", "lat": 33.9846691, "lng": -81.2516991, "state": "South"},{"name": "Stop N Grab", "lat": 34.1419454, "lng": -80.9382876, "state": "South"},{"name": "Stop N Grab", "lat": 34.0020043, "lng": -81.21161599999999, "state": "South"},{"name": "Stop N Grab", "lat": 33.9018844, "lng": -81.06510720000001, "state": "Columbia,"},{"name": "Stop N Grab", "lat": 33.4976061, "lng": -81.7025383, "state": "South"},{"name": "Stop N Grab", "lat": 34.0407887, "lng": -81.0944873, "state": "South"},{"name": "Stop N Grab", "lat": 34.0860422, "lng": -81.1840648, "state": "South"},{"name": "Stop N Grab", "lat": 33.9848904, "lng": -80.8920986, "state": "South"},{"name": "Stop N Grab", "lat": 33.9514473, "lng": -81.2344657, "state": "South"},{"name": "Stop N Grab", "lat": 33.547552, "lng": -81.6720375, "state": "South"},{"name": "Stop N Grab", "lat": 33.5603742, "lng": -81.778077, "state": "South"},{"name": "Stop N Grab", "lat": 34.2723471, "lng": -80.60990129999999, "state": "South"},{"name": "Stop N Grab", "lat": 33.5642732, "lng": -81.7642331, "state": "South"},{"name": "Stop N Grab", "lat": 33.9655158, "lng": -80.41247039999999, "state": "South"},{"name": "Stop N Grab", "lat": 34.7166126, "lng": -81.6019565, "state": "South"},{"name": "Stop N Grab", "lat": 34.9377021, "lng": -80.6689703, "state": "Springs,"},{"name": "Stop N Grab", "lat": 33.8466664, "lng": -81.65239129999999, "state": "Spring,"},{"name": "Stop N Grab", "lat": 34.0858377, "lng": -80.95966179999999, "state": "South"},{"name": "Stop N Grab", "lat": 33.9574873, "lng": -80.3882412, "state": "South"},{"name": "Stop N Grab", "lat": 33.9097826, "lng": -81.1064834, "state": "Columbia,"},{"name": "Stop N Grab", "lat": 33.9323046, "lng": -81.2900336, "state": "South"},{"name": "Stop N Grab", "lat": 34.2191471, "lng": -80.59533669999999, "state": "South"},{"name": "Stop N Grab", "lat": 34.2267205, "lng": -80.67843189999999, "state": "South"},{"name": "Stop N Grab", "lat": 33.9531963, "lng": -81.0969272, "state": "Columbia,"},{"name": "Stop N Grab", "lat": 33.5261427, "lng": -80.888213, "state": "South"},{"name": "Stop N Grab", "lat": 34.9557625, "lng": -79.7046676, "state": "North"},{"name": "Stop N Grab", "lat": 33.9625649, "lng": -81.2313592, "state": "South"},{"name": "Stop N Grab", "lat": 34.8290556, "lng": -81.6971277, "state": "South"},{"name": "Stop N Grab", "lat": 35.0435866, "lng": -78.96029159999999, "state": "North"},{"name": "Stop N Grab", "lat": 35.7477737, "lng": -78.7015703, "state": "North"},{"name": "Stop N Grab", "lat": 35.0617972, "lng": -79.01557020000001, "state": "North"},{"name": "Stop N Grab", "lat": 35.839374, "lng": -78.611226, "state": "North"},{"name": "Stop N Grab", "lat": 35.7449944, "lng": -78.7630051, "state": "North"},{"name": "Stop N Grab", "lat": 35.3328572, "lng": -79.0463422, "state": "North"},{"name": "Stop N Grab", "lat": 35.8303452, "lng": -78.7687067, "state": "North"},{"name": "Stop N Grab", "lat": 35.8028248, "lng": -78.7834221, "state": "North"},{"name": "Stop N Grab", "lat": 35.8608006, "lng": -78.6003255, "state": "North"},{"name": "Stop N Grab", "lat": 35.7983587, "lng": -78.5570125, "state": "North"},{"name": "Stop N Grab", "lat": 35.815966, "lng": -78.6926064, "state": "North"},{"name": "Stop N Grab", "lat": 35.7723145, "lng": -78.7636648, "state": "North"},{"name": "Stop N Grab", "lat": 36.0214582, "lng": -79.8398206, "state": "North"},{"name": "Stop N Grab", "lat": 35.9333395, "lng": -78.8889133, "state": "North"},{"name": "Stop N Grab", "lat": 35.7673014, "lng": -78.69678309999999, "state": "North"},{"name": "Stop N Grab", "lat": 35.7708711, "lng": -78.5840379, "state": "North"},{"name": "Stop N Grab", "lat": 35.8482505, "lng": -78.60119569999999, "state": "North"},{"name": "Stop N Grab", "lat": 35.924072, "lng": -78.9268937, "state": "North"},{"name": "Stop N Grab", "lat": 35.151734, "lng": -78.87113509999999, "state": "North"},{"name": "Stop N Grab", "lat": 35.929715, "lng": -79.03457689999999, "state": "Hill,"},{"name": "Stop N Grab", "lat": 35.43933690000001, "lng": -79.2169486, "state": "North"},{"name": "Stop N Grab", "lat": 35.9106828, "lng": -78.93656519999999, "state": "North"},{"name": "Stop N Grab", "lat": 35.90459550000001, "lng": -79.9569657, "state": "North"},{"name": "Stop N Grab", "lat": 35.7499252, "lng": -78.6492382, "state": "North"},{"name": "Stop N Grab", "lat": 35.9001956, "lng": -78.88944459999999, "state": "North"},{"name": "Stop N Grab", "lat": 36.0150448, "lng": -79.8659156, "state": "North"},{"name": "Stop N Grab", "lat": 35.1505661, "lng": -78.9123764, "state": "North"},{"name": "Stop N Grab", "lat": 35.9215732, "lng": -78.7415645, "state": "North"},{"name": "Stop N Grab", "lat": 35.1632351, "lng": -79.4087509, "state": "Pines,"},{"name": "Stop N Grab", "lat": 35.005436, "lng": -78.96762609999999, "state": "Mills,"},{"name": "Stop N Grab", "lat": 35.0962851, "lng": -78.9154655, "state": "North"},{"name": "Stop N Grab", "lat": 34.9970743, "lng": -78.90154369999999, "state": "North"},{"name": "Stop N Grab", "lat": 35.7847246, "lng": -78.69444659999999, "state": "North"},{"name": "Stop N Grab", "lat": 36.0239494, "lng": -79.81945400000001, "state": "North"},{"name": "Stop N Grab", "lat": 35.6012093, "lng": -78.57309800000002, "state": "North"},{"name": "Stop N Grab", "lat": 35.008102, "lng": -78.9190824, "state": "North"},{"name": "Stop N Grab", "lat": 35.087867, "lng": -78.9424313, "state": "North"},{"name": "Stop N Grab", "lat": 35.8562087, "lng": -78.7116221, "state": "North"},{"name": "Stop N Grab", "lat": 35.9865597, "lng": -80.01676119999999, "state": "Point,"},{"name": "Stop N Grab", "lat": 35.8424, "lng": -78.5731078, "state": "North"},{"name": "Stop N Grab", "lat": 35.0190435, "lng": -78.9167166, "state": "North"},{"name": "Stop N Grab", "lat": 35.032414, "lng": -79.096307, "state": "North"},{"name": "Stop N Grab", "lat": 35.7452393, "lng": -78.7385865, "state": "North"},{"name": "Stop N Grab", "lat": 35.5969635, "lng": -78.7580772, "state": "North"},{"name": "Stop N Grab", "lat": 35.9193266, "lng": -78.96032919999999, "state": "North"},{"name": "Stop N Grab", "lat": 35.4408559, "lng": -79.2171255, "state": "North"},{"name": "Stop N Grab", "lat": 35.03939769999999, "lng": -78.99783049999999, "state": "North"},{"name": "Stop N Grab", "lat": 35.1962513, "lng": -78.9888823, "state": "Lake,"},{"name": "Stop N Grab", "lat": 35.8374262, "lng": -78.856825, "state": "North"},{"name": "Stop N Grab", "lat": 35.7115535, "lng": -78.65760259999999, "state": "North"},{"name": "Stop N Grab", "lat": 35.7518459, "lng": -78.8762584, "state": "North"},{"name": "Stop N Grab", "lat": 35.4597319, "lng": -79.11097529999999, "state": "North"},{"name": "Stop N Grab", "lat": 35.1295544, "lng": -78.8979161, "state": "North"},{"name": "Stop N Grab", "lat": 35.4628353, "lng": -79.1500454, "state": "North"},{"name": "Stop N Grab", "lat": 35.0590518, "lng": -79.0484081, "state": "North"},{"name": "Stop N Grab", "lat": 35.4241372, "lng": -79.1209039, "state": "North"},{"name": "Stop N Grab", "lat": 34.9756236, "lng": -78.951386, "state": "Mills,"},{"name": "Stop N Grab", "lat": 35.6866804, "lng": -78.5496271, "state": "North"},{"name": "Stop N Grab", "lat": 35.4214973, "lng": -79.1198234, "state": "North"},{"name": "Stop N Grab", "lat": 35.8044445, "lng": -78.7823645, "state": "North"},{"name": "Stop N Grab", "lat": 35.839374, "lng": -78.611226, "state": "North"},{"name": "Stop N Grab", "lat": 35.8608006, "lng": -78.6003255, "state": "North"},{"name": "Stop N Grab", "lat": 35.7983587, "lng": -78.5570125, "state": "North"},{"name": "Stop N Grab", "lat": 35.7708711, "lng": -78.5840379, "state": "North"},{"name": "Stop N Grab", "lat": 35.8482505, "lng": -78.60119569999999, "state": "North"},{"name": "Stop N Grab", "lat": 35.5910913, "lng": -77.3963144, "state": "North"},{"name": "Stop N Grab", "lat": 35.9640339, "lng": -77.8196438, "state": "Mount,"},{"name": "Stop N Grab", "lat": 35.5556231, "lng": -77.40667049999999, "state": "North"},{"name": "Stop N Grab", "lat": 35.6012093, "lng": -78.57309800000002, "state": "North"},{"name": "Stop N Grab", "lat": 35.8424, "lng": -78.5731078, "state": "North"},{"name": "Stop N Grab", "lat": 35.2845833, "lng": -77.5888823, "state": "North"},{"name": "Stop N Grab", "lat": 35.3977218, "lng": -77.96511, "state": "North"},{"name": "Stop N Grab", "lat": 35.6866804, "lng": -78.5496271, "state": "North"},{"name": "Stop N Grab", "lat": 35.9633596, "lng": -77.84980999999999, "state": "Mount,"},{"name": "Stop N Grab", "lat": 35.7985675, "lng": -78.5688179, "state": "North"},{"name": "Stop N Grab", "lat": 35.5189804, "lng": -78.3162358, "state": "North"},{"name": "Stop N Grab", "lat": 36.6662581, "lng": -76.9564295, "state": "Virginia"},{"name": "Stop N Grab", "lat": 35.8424161, "lng": -78.5738801, "state": "North"},{"name": "Stop N Grab", "lat": 35.5912129, "lng": -77.37780219999999, "state": "North"},{"name": "Stop N Grab", "lat": 35.3507465, "lng": -78.0163491, "state": "North"},{"name": "Stop N Grab", "lat": 35.4438042, "lng": -78.00812189999999, "state": "North"},{"name": "Stop N Grab", "lat": 35.9318343, "lng": -77.77429649999999, "state": "Mount,"},{"name": "Stop N Grab", "lat": 35.8914239, "lng": -78.6016708, "state": "North"},{"name": "Stop N Grab", "lat": 35.8319021, "lng": -78.58507759999999, "state": "North"},{"name": "Stop N Grab", "lat": 36.0124457, "lng": -77.8606549, "state": "Mount,"},{"name": "Stop N Grab", "lat": 35.4225979, "lng": -77.98093109999999, "state": "North"},{"name": "Stop N Grab", "lat": 35.3984937, "lng": -78.0055552, "state": "North"},{"name": "Stop N Grab", "lat": 35.6390534, "lng": -78.4473604, "state": "North"},{"name": "Stop N Grab", "lat": 35.7632002, "lng": -78.0004009, "state": "North"},{"name": "Stop N Grab", "lat": 35.9777432, "lng": -77.9724081, "state": "North"},{"name": "Stop N Grab", "lat": 35.9506095, "lng": -77.81842639999999, "state": "Mount,"},{"name": "Stop N Grab", "lat": 35.9777301, "lng": -78.54188289999999, "state": "Forest,"},{"name": "Stop N Grab", "lat": 35.4110332, "lng": -78.03535889999999, "state": "North"},{"name": "Stop N Grab", "lat": 35.3784081, "lng": -77.94618919999999, "state": "North"},{"name": "Stop N Grab", "lat": 35.9857049, "lng": -77.78479370000001, "state": "Mount,"},{"name": "Stop N Grab", "lat": 35.8394516, "lng": -78.61144469999999, "state": "North"},{"name": "Stop N Grab", "lat": 35.9319197, "lng": -77.7744701, "state": "Mount,"},{"name": "Stop N Grab", "lat": 35.2706169, "lng": -77.60941450000001, "state": "North"},{"name": "Stop N Grab", "lat": 35.2395762, "lng": -77.57709539999999, "state": "North"},{"name": "Stop N Grab", "lat": 36.7207836, "lng": -78.1190682, "state": "Hill,"},{"name": "Stop N Grab", "lat": 35.5934045, "lng": -78.13002759999999, "state": "North"},{"name": "Stop N Grab", "lat": 35.388414, "lng": -77.9200946, "state": "North"},{"name": "Stop N Grab", "lat": 35.9538485, "lng": -77.82718969999999, "state": "Mount,"},{"name": "Stop N Grab", "lat": 35.985495, "lng": -77.7846234, "state": "Mount,"},{"name": "Stop N Grab", "lat": 35.3155578, "lng": -78.6259213, "state": "North"},{"name": "Stop N Grab", "lat": 35.832464, "lng": -78.5843761, "state": "North"},{"name": "Stop N Grab", "lat": 35.7553807, "lng": -77.92589439999999, "state": "North"},{"name": "Stop N Grab", "lat": 35.5567954, "lng": -77.36864159999999, "state": "North"},{"name": "Stop N Grab", "lat": 35.1157567, "lng": -77.0742628, "state": "Bern,"},{"name": "Stop N Grab", "lat": 35.2702303, "lng": -78.6156195, "state": "North"},{"name": "Stop N Grab", "lat": 36.6359484, "lng": -78.5413372, "state": "Virginia"},{"name": "Stop N Grab", "lat": 36.7302846, "lng": -76.597173, "state": "Virginia"},{"name": "Stop N Grab", "lat": 35.7499252, "lng": -78.6492382, "state": "North"},{"name": "Stop N Grab", "lat": 35.842502, "lng": -78.5730073, "state": "North"},{"name": "Stop N Grab", "lat": 35.7115535, "lng": -78.65760259999999, "state": "North"},{"name": "Stop N Grab", "lat": 35.10396470000001, "lng": -77.0820627, "state": "Bern,"},{"name": "Stop N Grab", "lat": 35.8606016, "lng": -78.6002273, "state": "North"},{"name": "Stop N Grab", "lat": 36.7759255, "lng": -76.44507159999999, "state": "Virginia"},{"name": "Stop N Grab", "lat": 35.815966, "lng": -78.6926064, "state": "North"},{"name": "Stop N Grab", "lat": 35.7673014, "lng": -78.69678309999999, "state": "North"},{"name": "Stop N Grab", "lat": 37.2589478, "lng": -77.4000097, "state": "Heights,"},{"name": "Stop N Grab", "lat": 37.76023500000001, "lng": -77.45493139999999, "state": "Virginia"},{"name": "Stop N Grab", "lat": 36.6662581, "lng": -76.9564295, "state": "Virginia"},{"name": "Stop N Grab", "lat": 37.7588293, "lng": -77.4645458, "state": "Virginia"},{"name": "Stop N Grab", "lat": 37.4835225, "lng": -76.91143799999999, "state": "Virginia"},{"name": "Stop N Grab", "lat": 36.7764775, "lng": -76.3388405, "state": "Virginia"},{"name": "Stop N Grab", "lat": 36.7207836, "lng": -78.1190682, "state": "Hill,"},{"name": "Stop N Grab", "lat": 36.7302846, "lng": -76.597173, "state": "Virginia"},{"name": "Stop N Grab", "lat": 37.7602609, "lng": -77.45489859999999, "state": "Virginia"},{"name": "Stop N Grab", "lat": 36.7759255, "lng": -76.44507159999999, "state": "Virginia"},{"name": "Stop N Grab", "lat": 37.2262438, "lng": -77.40263350000001, "state": "Virginia"},{"name": "Stop N Grab", "lat": 38.0666279, "lng": -78.46558639999999, "state": "Virginia"},{"name": "Stop N Grab", "lat": 36.7207841, "lng": -78.1190685, "state": "Hill,"},{"name": "Stop N Grab", "lat": 37.5350109, "lng": -77.5617875, "state": "Air,"},{"name": "Stop N Grab", "lat": 36.6359484, "lng": -78.5413372, "state": "Virginia"},{"name": "Stop N Grab", "lat": 36.0124457, "lng": -77.8606549, "state": "Mount,"},{"name": "Stop N Grab", "lat": 35.9640339, "lng": -77.8196438, "state": "Mount,"},{"name": "Stop N Grab", "lat": 35.9633596, "lng": -77.84980999999999, "state": "Mount,"},{"name": "Stop N Grab", "lat": 35.9857049, "lng": -77.78479370000001, "state": "Mount,"},{"name": "Stop N Grab", "lat": 35.9777432, "lng": -77.9724081, "state": "North"},{"name": "Stop N Grab", "lat": 35.9777301, "lng": -78.54188289999999, "state": "Forest,"},{"name": "Stop N Grab", "lat": 35.9506095, "lng": -77.81842639999999, "state": "Mount,"},{"name": "Stop N Grab", "lat": 35.9318343, "lng": -77.77429649999999, "state": "Mount,"},{"name": "Stop N Grab", "lat": 35.9215732, "lng": -78.7415645, "state": "North"},{"name": "Stop N Grab", "lat": 36.776525, "lng": -76.3388666, "state": "Virginia"},{"name": "Stop N Grab", "lat": 36.038105, "lng": -78.93011, "state": "North"},{"name": "Stop N Grab", "lat": 36.0594389, "lng": -78.902537, "state": "North"},{"name": "Stop N Grab", "lat": 38.47072989999999, "lng": -77.41312119999999, "state": "Virginia"},{"name": "Stop N Grab", "lat": 35.8394516, "lng": -78.61144469999999, "state": "North"},{"name": "Stop N Grab", "lat": 35.9106828, "lng": -78.93656519999999, "state": "North"},{"name": "Stop N Grab", "lat": 36.0002759, "lng": -75.6533362, "state": "Devil"},{"name": "Stop N Grab", "lat": 37.5620068, "lng": -77.4700094, "state": "Virginia"},{"name": "Stop N Grab", "lat": 38.9259134, "lng": -78.19349969999999, "state": "Royal,"},{"name": "Stop N Grab", "lat": 38.13782399999999, "lng": -79.0696258, "state": "Virginia"},{"name": "Stop N Grab", "lat": 38.7286678, "lng": -77.8020003, "state": "Virginia"},{"name": "Stop N Grab", "lat": 38.0666279, "lng": -78.46558639999999, "state": "Virginia"},{"name": "Stop N Grab", "lat": 38.4342019, "lng": -78.8471366, "state": "Virginia"},{"name": "Stop N Grab", "lat": 38.4198327, "lng": -78.8699918, "state": "Virginia"},{"name": "Stop N Grab", "lat": 38.0773546, "lng": -79.08924549999999, "state": "Virginia"},{"name": "Stop N Grab", "lat": 38.660378, "lng": -78.49061979999999, "state": "Virginia"},{"name": "Stop N Grab", "lat": 38.4416163, "lng": -78.8544338, "state": "Virginia"},{"name": "Stop N Grab", "lat": 39.1515743, "lng": -77.9830618, "state": "Virginia"},{"name": "Stop N Grab", "lat": 38.7544885, "lng": -78.6339993, "state": "Jackson,"},{"name": "Stop N Grab", "lat": 39.2105935, "lng": -78.1788832, "state": "Virginia"},{"name": "Stop N Grab", "lat": 39.0767142, "lng": -78.9647973, "state": "West"},{"name": "Stop N Grab", "lat": 38.0769606, "lng": -79.0893701, "state": "Virginia"},{"name": "Stop N Grab", "lat": 39.159721, "lng": -78.15132489999999, "state": "Park,"},{"name": "Stop N Grab", "lat": 39.0492175, "lng": -77.4537739, "state": "Virginia"},{"name": "Stop N Grab", "lat": 37.76023500000001, "lng": -77.45493139999999, "state": "Virginia"},{"name": "Stop N Grab", "lat": 37.7588293, "lng": -77.4645458, "state": "Virginia"},{"name": "Stop N Grab", "lat": 38.7714389, "lng": -77.4532404, "state": "Park,"},{"name": "Stop N Grab", "lat": 38.8287027, "lng": -77.4397953, "state": "Virginia"},{"name": "Stop N Grab", "lat": 38.47072989999999, "lng": -77.41312119999999, "state": "Virginia"},{"name": "Stop N Grab", "lat": 37.5350109, "lng": -77.5617875, "state": "Air,"},{"name": "Stop N Grab", "lat": 38.4750405, "lng": -77.4182898, "state": "Virginia"},{"name": "Stop N Grab", "lat": 37.3865823, "lng": -79.90339279999999, "state": "Virginia"},{"name": "Stop N Grab", "lat": 38.7408359, "lng": -77.45225359999999, "state": "Virginia"},{"name": "Stop N Grab", "lat": 39.3383029, "lng": -80.0256775, "state": "West"},{"name": "Stop N Grab", "lat": 39.4718629, "lng": -79.6895759, "state": "West"},{"name": "Stop N Grab", "lat": 38.4706086, "lng": -77.4129944, "state": "Virginia"},{"name": "Stop N Grab", "lat": 37.3437095, "lng": -79.95565359999999, "state": "Virginia"},{"name": "Stop N Grab", "lat": 38.7282561, "lng": -77.80182479999999, "state": "Virginia"},{"name": "Stop N Grab", "lat": 39.5236692, "lng": -79.9141695, "state": "West"},{"name": "Stop N Grab", "lat": 39.1809928, "lng": -77.2616182, "state": "Maryland"},{"name": "Stop N Grab", "lat": 37.4315734, "lng": -78.6568942, "state": "Store,"},{"name": "Stop N Grab", "lat": 39.5345094, "lng": -79.7976613, "state": "West"},{"name": "Stop N Grab", "lat": 37.2589478, "lng": -77.4000097, "state": "Heights,"},{"name": "Stop N Grab", "lat": 39.4788247, "lng": -80.1267575, "state": "West"},{"name": "Stop N Grab", "lat": 39.4863804, "lng": -77.3415574, "state": "Maryland"},{"name": "Stop N Grab", "lat": 39.604164, "lng": -79.91558719999999, "state": "West"},{"name": "Stop N Grab", "lat": 39.5803824, "lng": -78.84764249999999, "state": "Maryland"},{"name": "Stop N Grab", "lat": 39.614289, "lng": -79.9512113, "state": "West"},{"name": "Stop N Grab", "lat": 39.634184, "lng": -79.96798509999999, "state": "West"},{"name": "Stop N Grab", "lat": 39.2903944, "lng": -80.3570707, "state": "West"},{"name": "Stop N Grab", "lat": 39.6367057, "lng": -78.7489166, "state": "Maryland"},{"name": "Stop N Grab", "lat": 39.0294028, "lng": -77.4884297, "state": "Virginia"},{"name": "Stop N Grab", "lat": 37.7602609, "lng": -77.45489859999999, "state": "Virginia"},{"name": "Stop N Grab", "lat": 39.4295116, "lng": -80.2774579, "state": "West"},{"name": "Stop N Grab", "lat": 38.47068790000001, "lng": -77.4127433, "state": "Virginia"},{"name": "Stop N Grab", "lat": 37.4835225, "lng": -76.91143799999999, "state": "Virginia"},{"name": "Stop N Grab", "lat": 39.8947316, "lng": -79.74243229999999, "state": "Pennsylvania"},{"name": "Stop N Grab", "lat": 39.2371701, "lng": -76.6624271, "state": "Maryland"},{"name": "Stop N Grab", "lat": 37.0854117, "lng": -80.6511858, "state": "Virginia"},{"name": "Stop N Grab", "lat": 36.9114168, "lng": -80.3161978, "state": "Virginia"},{"name": "Stop N Grab", "lat": 36.6896652, "lng": -79.8855877, "state": "Virginia"},{"name": "Stop N Grab", "lat": 39.2094226, "lng": -76.8010257, "state": "Maryland"},{"name": "Stop N Grab", "lat": 39.9556757, "lng": -80.7536339, "state": "Dale,"},{"name": "Stop N Grab", "lat": 36.9519064, "lng": -80.88128809999999, "state": "Meadows,"},{"name": "Stop N Grab", "lat": 36.9610709, "lng": -81.1000878, "state": "Virginia"},{"name": "Stop N Grab", "lat": 40.9271936, "lng": -81.10516899999999, "state": "Ohio"},{"name": "Stop N Grab", "lat": 39.3624673, "lng": -74.61850249999999, "state": "Harbor"},{"name": "Stop N Grab", "lat": 39.3592128, "lng": -74.4369269, "state": "City,"},{"name": "Stop N Grab", "lat": 39.272249, "lng": -76.6305139, "state": "Maryland"},{"name": "Stop N Grab", "lat": 39.3429286, "lng": -76.6405954, "state": "Maryland"},{"name": "Stop N Grab", "lat": 39.2371701, "lng": -76.6624271, "state": "Maryland"},{"name": "Stop N Grab", "lat": 39.5685718, "lng": -74.3703062, "state": "Egg"},{"name": "Stop N Grab", "lat": 39.4191477, "lng": -76.6691243, "state": "Maryland"},{"name": "Stop N Grab", "lat": 38.8418291, "lng": -76.7278671, "state": "Marlboro,"},{"name": "Stop N Grab", "lat": 39.6015398, "lng": -74.3598277, "state": "Egg"},{"name": "Stop N Grab", "lat": 39.1994804, "lng": -76.81471789999999, "state": "Maryland"},{"name": "Stop N Grab", "lat": 39.7076314, "lng": -75.4698174, "state": "Grove,"},{"name": "Stop N Grab", "lat": 39.7307929, "lng": -74.2939504, "state": "Stafford"},{"name": "Stop N Grab", "lat": 39.7860398, "lng": -75.5453893, "state": "Delaware"},{"name": "Stop N Grab", "lat": 39.2094226, "lng": -76.8010257, "state": "Maryland"},{"name": "Stop N Grab", "lat": 39.8163799, "lng": -75.4585752, "state": "Delaware"},{"name": "Stop N Grab", "lat": 39.1809928, "lng": -77.2616182, "state": "Maryland"},{"name": "Stop N Grab", "lat": 40.0069111, "lng": -74.2420945, "state": "River,"},{"name": "Stop N Grab", "lat": 40.0460678, "lng": -75.42399019999999, "state": "Pennsylvania"},{"name": "Stop N Grab", "lat": 40.1415172, "lng": -75.1674772, "state": "Pennsylvania"},{"name": "Stop N Grab", "lat": 38.47072989999999, "lng": -77.41312119999999, "state": "Virginia"},{"name": "Stop N Grab", "lat": 39.0492175, "lng": -77.4537739, "state": "Virginia"},{"name": "Stop N Grab", "lat": 40.0812343, "lng": -74.1579939, "state": "New"},{"name": "Stop N Grab", "lat": 38.8287027, "lng": -77.4397953, "state": "Virginia"},{"name": "Stop N Grab", "lat": 37.2589478, "lng": -77.4000097, "state": "Heights,"},{"name": "Stop N Grab", "lat": 38.4750405, "lng": -77.4182898, "state": "Virginia"},{"name": "Stop N Grab", "lat": 38.7714389, "lng": -77.4532404, "state": "Park,"},{"name": "Stop N Grab", "lat": 40.25355649999999, "lng": -75.65484409999999, "state": "Pennsylvania"},{"name": "Stop N Grab", "lat": 42.1497717, "lng": -72.8147274, "state": "Massachusetts"},{"name": "Stop N Grab", "lat": 41.6592469, "lng": -73.8485882, "state": "New"},{"name": "Stop N Grab", "lat": 40.9557413, "lng": -74.0308531, "state": "New"},{"name": "Stop N Grab", "lat": 40.9608679, "lng": -74.2409732, "state": "New"},{"name": "Stop N Grab", "lat": 41.8724609, "lng": -72.6599226, "state": "Connecticut"},{"name": "Stop N Grab", "lat": 42.58628789999999, "lng": -72.62468559999999, "state": "Massachusetts"},{"name": "Stop N Grab", "lat": 41.1818864, "lng": -73.2512101, "state": "Connecticut"},{"name": "Stop N Grab", "lat": 41.038155, "lng": -74.70193309999999, "state": "New"},{"name": "Stop N Grab", "lat": 42.1863475, "lng": -72.65114849999999, "state": "Massachusetts"},{"name": "Stop N Grab", "lat": 41.8524343, "lng": -72.66223029999999, "state": "Connecticut"},{"name": "Stop N Grab", "lat": 42.2060204, "lng": -72.61156559999999, "state": "Massachusetts"},{"name": "Stop N Grab", "lat": 40.9329188, "lng": -74.26986289999999, "state": "New"},{"name": "Stop N Grab", "lat": 42.4709065, "lng": -72.61573299999999, "state": "Massachusetts"},{"name": "Stop N Grab", "lat": 42.4710009, "lng": -72.6156074, "state": "Massachusetts"},{"name": "Stop N Grab", "lat": 40.9137079, "lng": -74.5772325, "state": "New"},{"name": "Stop N Grab", "lat": 42.132641, "lng": -72.5479211, "state": "Massachusetts"},{"name": "Stop N Grab", "lat": 41.0880032, "lng": -74.5189018, "state": "Hardyston,"},{"name": "Stop N Grab", "lat": 40.8545001, "lng": -74.07220869999999, "state": "Heights,"},{"name": "Stop N Grab", "lat": 40.8638989, "lng": -74.1063667, "state": "New"},{"name": "Stop N Grab", "lat": 42.4687053, "lng": -72.6134677, "state": "Massachusetts"},{"name": "Stop N Grab", "lat": 42.8367866, "lng": -72.5655443, "state": "Vermont"},{"name": "Stop N Grab", "lat": 40.743548, "lng": -73.5057309, "state": "New"},{"name": "Stop N Grab", "lat": 42.926965, "lng": -72.6126171, "state": "Vermont"},{"name": "Stop N Grab", "lat": 40.6758067, "lng": -74.1045078, "state": "New"},{"name": "Stop N Grab", "lat": 42.96665790000001, "lng": -71.4815253, "state": "New"},{"name": "Stop N Grab", "lat": 42.7919911, "lng": -71.2352136, "state": "New"},{"name": "Stop N Grab", "lat": 42.7448451, "lng": -71.1092072, "state": "Massachusetts"},{"name": "Stop N Grab", "lat": 42.9026124, "lng": -71.3194542, "state": "New"},{"name": "Stop N Grab", "lat": 43.5409975, "lng": -71.46569699999999, "state": "New"},{"name": "Stop N Grab", "lat": 42.5552022, "lng": -71.26643609999999, "state": "Massachusetts"},{"name": "Stop N Grab", "lat": 42.6423222, "lng": -71.2361086, "state": "Massachusetts"},{"name": "Stop N Grab", "lat": 43.6192701, "lng": -70.3060622, "state": "Portland,"},{"name": "Stop N Grab", "lat": 43.2355843, "lng": -70.8820902, "state": "New"},{"name": "Stop N Grab", "lat": 43.62945, "lng": -70.29362549999999, "state": "Portland,"},{"name": "Stop N Grab", "lat": 42.885141, "lng": -70.8699585, "state": "New"},{"name": "Stop N Grab", "lat": 43.6334823, "lng": -70.3146556, "state": "Portland,"},{"name": "Stop N Grab", "lat": 42.86637959999999, "lng": -71.4940647, "state": "New"},{"name": "Stop N Grab", "lat": 43.0311129, "lng": -70.7882054, "state": "New"},{"name": "Stop N Grab", "lat": 43.6855204, "lng": -70.3285652, "state": "Maine"},{"name": "Stop N Grab", "lat": 43.0285678, "lng": -71.4404994, "state": "New"},{"name": "Stop N Grab", "lat": 43.4571968, "lng": -71.56454160000001, "state": "New"},{"name": "Stop N Grab", "lat": 43.6505047, "lng": -70.2580244, "state": "Maine"},{"name": "Stop N Grab", "lat": 43.2585838, "lng": -70.97971559999999, "state": "New"},{"name": "Stop N Grab", "lat": 43.4776828, "lng": -70.4943732, "state": "Maine"},{"name": "Stop N Grab", "lat": 42.8462503, "lng": -70.9154064, "state": "Massachusetts"},{"name": "Stop N Grab", "lat": 43.040359, "lng": -71.4709798, "state": "New"},{"name": "Stop N Grab", "lat": 43.1991758, "lng": -71.5517508, "state": "New"},{"name": "Stop N Grab", "lat": 43.2222343, "lng": -71.49490399999999, "state": "New"},{"name": "Stop N Grab", "lat": 42.729961, "lng": -71.210342, "state": "Massachusetts"},{"name": "Stop N Grab", "lat": 44.3103671, "lng": -69.7927723, "state": "Maine"},{"name": "Stop N Grab", "lat": 44.0200737, "lng": -71.1163603, "state": "Conway,"},{"name": "Stop N Grab", "lat": 43.04042889999999, "lng": -71.0647594, "state": "New"},{"name": "Stop N Grab", "lat": 43.444544, "lng": -71.4760184, "state": "New"},{"name": "Stop N Grab", "lat": 44.1203175, "lng": -70.20380999999999, "state": "Maine"},{"name": "Stop N Grab", "lat": 42.9753072, "lng": -71.51446469999999, "state": "New"},{"name": "Stop N Grab", "lat": 42.8186963, "lng": -71.4132832, "state": "New"},{"name": "Stop N Grab", "lat": 42.9937005, "lng": -70.9249002, "state": "New"},{"name": "Stop N Grab", "lat": 42.9296667, "lng": -71.4604468, "state": "New"},{"name": "Stop N Grab", "lat": 43.5842385, "lng": -70.3615772, "state": "Maine"},{"name": "Stop N Grab", "lat": 42.974014, "lng": -70.835078, "state": "Hampton,"},{"name": "Stop N Grab", "lat": 44.2967571, "lng": -71.76912, "state": "New"},{"name": "Stop N Grab", "lat": 42.8408308, "lng": -71.71857589999999, "state": "New"},{"name": "Stop N Grab", "lat": 43.1791348, "lng": -70.9020522, "state": "New"},{"name": "Stop N Grab", "lat": 43.7596268, "lng": -71.67976039999999, "state": "New"},{"name": "Stop N Grab", "lat": 43.0994587, "lng": -70.74781329999999, "state": "Maine"},{"name": "Stop N Grab", "lat": 43.70098489999999, "lng": -71.1087805, "state": "New"},{"name": "Stop N Grab", "lat": 44.1026168, "lng": -70.2256683, "state": "Maine"},{"name": "Stop N Grab", "lat": 43.289523, "lng": -71.8339221, "state": "New"},{"name": "Stop N Grab", "lat": 43.5280292, "lng": -70.42627, "state": "Maine"},{"name": "Stop N Grab", "lat": 43.0481085, "lng": -71.461664, "state": "New"},{"name": "Stop N Grab", "lat": 43.661245, "lng": -71.4934967, "state": "New"},{"name": "Stop N Grab", "lat": 43.1333059, "lng": -70.9197815, "state": "New"},{"name": "Stop N Grab", "lat": 44.3067562, "lng": -69.75149549999999, "state": "Maine"},{"name": "Stop N Grab", "lat": 43.5014803, "lng": -71.4612422, "state": "New"},{"name": "Stop N Grab", "lat": 43.1950078, "lng": -71.1530454, "state": "New"},{"name": "Stop N Grab", "lat": 43.2119463, "lng": -70.9950119, "state": "New"},{"name": "Stop N Grab", "lat": 43.1214954, "lng": -71.44268079999999, "state": "New"},{"name": "Stop N Grab", "lat": 44.0815399, "lng": -70.25695069999999, "state": "Maine"},{"name": "Stop N Grab", "lat": 42.8192051, "lng": -70.9117723, "state": "Massachusetts"},{"name": "Stop N Grab", "lat": 43.3953207, "lng": -70.53051359999999, "state": "Maine"},{"name": "Stop N Grab", "lat": 43.0105468, "lng": -71.54319149999999, "state": "New"},{"name": "Stop N Grab", "lat": 43.7355062, "lng": -70.2962989, "state": "Maine"},{"name": "Stop N Grab", "lat": 43.9091099, "lng": -69.9492855, "state": "Maine"},{"name": "Stop N Grab", "lat": 43.842347, "lng": -70.1194975, "state": "Maine"},{"name": "Stop N Grab", "lat": 44.3103671, "lng": -69.7927723, "state": "Maine"},{"name": "Stop N Grab", "lat": 44.3490155, "lng": -69.7968236, "state": "Maine"},{"name": "Stop N Grab", "lat": 44.1203175, "lng": -70.20380999999999, "state": "Maine"},{"name": "Stop N Grab", "lat": 44.3969662, "lng": -71.1940084, "state": "New"},{"name": "Stop N Grab", "lat": 44.1026168, "lng": -70.2256683, "state": "Maine"},{"name": "Stop N Grab", "lat": 44.4692359, "lng": -71.1836316, "state": "New"},{"name": "Stop N Grab", "lat": 44.3067562, "lng": -69.75149549999999, "state": "Maine"},{"name": "Stop N Grab", "lat": 44.635555, "lng": -70.1539071, "state": "Maine"},{"name": "Stop N Grab", "lat": 44.0815399, "lng": -70.25695069999999, "state": "Maine"},{"name": "Stop N Grab", "lat": 44.54541460000001, "lng": -69.6769513, "state": "Maine"},{"name": "Stop N Grab", "lat": 44.7854934, "lng": -69.7319122, "state": "Maine"},{"name": "Stop N Grab", "lat": 44.1102535, "lng": -71.1792701, "state": "Bartlett,"},{"name": "Stop N Grab", "lat": 44.5429159, "lng": -70.54872449999999, "state": "Maine"},{"name": "Stop N Grab", "lat": 44.1016023, "lng": -69.38073949999999, "state": "Maine"},{"name": "Stop N Grab", "lat": 44.7615245, "lng": -69.5649719, "state": "Maine"},{"name": "Stop N Grab", "lat": 44.6641263, "lng": -70.1489691, "state": "Maine"},{"name": "Stop N Grab", "lat": 44.79808300000001, "lng": -69.8809328, "state": "Maine"},{"name": "Stop N Grab", "lat": 44.1938533, "lng": -70.1370853, "state": "Maine"},{"name": "Stop N Grab", "lat": 44.4590302, "lng": -71.18743429999999, "state": "New"},{"name": "Stop N Grab", "lat": 44.0345631, "lng": -70.26782310000002, "state": "Maine"},{"name": "Stop N Grab", "lat": 44.3230647, "lng": -69.8458995, "state": "Maine"},{"name": "Stop N Grab", "lat": 44.2801959, "lng": -71.6863125, "state": "New"},{"name": "Stop N Grab", "lat": 44.222713, "lng": -70.514282, "state": "Paris,"},{"name": "Stop N Grab", "lat": 44.8367903, "lng": -69.2875315, "state": "Maine"},{"name": "Stop N Grab", "lat": 44.305816, "lng": -69.975111, "state": "Maine"},{"name": "Stop N Grab", "lat": 44.5905619, "lng": -69.5956121, "state": "Maine"},{"name": "Stop N Grab", "lat": 44.3854906, "lng": -69.3596432, "state": "Maine"},{"name": "Stop N Grab", "lat": 44.5949685, "lng": -69.61762829999999, "state": "Maine"},{"name": "Stop N Grab", "lat": 44.4797331, "lng": -69.50964789999999, "state": "Maine"},{"name": "Stop N Grab", "lat": 44.8348838, "lng": -69.27107, "state": "Maine"},{"name": "Stop N Grab", "lat": 44.6033118, "lng": -69.6599219, "state": "Maine"},{"name": "Stop N Grab", "lat": 44.557011, "lng": -70.54346, "state": "Maine"},{"name": "Stop N Grab", "lat": 44.4250683, "lng": -70.79696349999999, "state": "Maine"},{"name": "Stop N Grab", "lat": 44.0200737, "lng": -71.1163603, "state": "Conway,"},{"name": "Stop N Grab", "lat": 44.11963129999999, "lng": -69.1024394, "state": "Maine"},{"name": "Stop N Grab", "lat": 44.1450451, "lng": -69.0892494, "state": "Maine"},{"name": "Stop N Grab", "lat": 44.2967571, "lng": -71.76912, "state": "New"},{"name": "Stop N Grab", "lat": 43.9792777, "lng": -71.11625049999999, "state": "New"},{"name": "Stop N Grab", "lat": 43.9759208, "lng": -69.709261, "state": "Maine"},{"name": "Stop N Grab", "lat": 44.4228363, "lng": -69.02611929999999, "state": "Maine"},{"name": "Stop N Grab", "lat": 43.9371642, "lng": -69.9714492, "state": "Maine"},{"name": "Stop N Grab", "lat": 43.9186254, "lng": -70.3560535, "state": "Maine"},{"name": "Stop N Grab", "lat": 44.4053397, "lng": -68.9912073, "state": "Maine"},{"name": "Stop N Grab", "lat": 43.9091099, "lng": -69.9492855, "state": "Maine"},{"name": "Stop N Grab", "lat": 44.3230589, "lng": -69.8458832, "state": "Maine"},{"name": "Stop N Grab", "lat": 44.10265589999999, "lng": -70.2256553, "state": "Maine"},{"name": "Stop N Grab", "lat": 44.0817093, "lng": -70.2567904, "state": "Maine"},{"name": "Stop N Grab", "lat": 43.8813334, "lng": -70.4648564, "state": "Maine"},{"name": "Stop N Grab", "lat": 43.8625888, "lng": -70.1062961, "state": "Maine"},{"name": "Stop N Grab", "lat": 44.1026917, "lng": -70.22563889999999, "state": "Maine"},{"name": "Stop N Grab", "lat": 43.842347, "lng": -70.1194975, "state": "Maine"},{"name": "Stop N Grab", "lat": 44.2801976, "lng": -71.68628939999999, "state": "New"},{"name": "Stop N Grab", "lat": 44.7441219, "lng": -68.8371295, "state": "Maine"},{"name": "Stop N Grab", "lat": 44.7902188, "lng": -68.81165899999999, "state": "Maine"},{"name": "Stop N Grab", "lat": 43.8625163, "lng": -69.6269294, "state": "Harbor,"},{"name": "Stop N Grab", "lat": 44.7878295, "lng": -68.778984, "state": "Maine"},{"name": "Stop N Grab", "lat": 44.5708674, "lng": -68.7870159, "state": "Maine"},{"name": "Stop N Grab", "lat": 44.8183969, "lng": -68.77399299999999, "state": "Maine"},{"name": "Stop N Grab", "lat": 43.7596268, "lng": -71.67976039999999, "state": "New"},{"name": "Stop N Grab", "lat": 44.8364731, "lng": -68.7418163, "state": "Maine"},{"name": "Stop N Grab", "lat": 33.5841528, "lng": -84.5090981, "state": "City,"},{"name": "Stop N Grab", "lat": 34.0947973, "lng": -83.8096291, "state": "Georgia"},{"name": "Stop N Grab", "lat": 33.867837, "lng": -84.18783049999999, "state": "Georgia"},{"name": "Stop N Grab", "lat": 33.6085118, "lng": -84.4460311, "state": "Park,"},{"name": "Stop N Grab", "lat": 33.9549703, "lng": -84.3645152, "state": "Springs,"},{"name": "Stop N Grab", "lat": 33.99419779999999, "lng": -84.54887389999999, "state": "Georgia"},{"name": "Stop N Grab", "lat": 33.7374227, "lng": -84.24352739999999, "state": "Georgia"},{"name": "Stop N Grab", "lat": 34.0352287, "lng": -84.57435129999999, "state": "Georgia"},{"name": "Stop N Grab", "lat": 33.4087097, "lng": -84.1661889, "state": "Georgia"},{"name": "Stop N Grab", "lat": 33.801576, "lng": -84.4366975, "state": "Georgia"},{"name": "Stop N Grab", "lat": 34.060958, "lng": -84.2454628, "state": "Georgia"},{"name": "Stop N Grab", "lat": 33.74568440000001, "lng": -84.4180762, "state": "Georgia"},{"name": "Stop N Grab", "lat": 33.7573118, "lng": -84.3717207, "state": "Georgia"},{"name": "Stop N Grab", "lat": 33.2925627, "lng": -84.1903557, "state": "Georgia"},{"name": "Stop N Grab", "lat": 33.7696438, "lng": -84.404997, "state": "Georgia"},{"name": "Stop N Grab", "lat": 33.5870658, "lng": -84.3778784, "state": "Park,"},{"name": "Stop N Grab", "lat": 33.8232837, "lng": -84.3667427, "state": "Georgia"},{"name": "Stop N Grab", "lat": 33.8859826, "lng": -84.24848759999999, "state": "Georgia"},{"name": "Stop N Grab", "lat": 33.8006248, "lng": -84.42543890000002, "state": "Georgia"},{"name": "Stop N Grab", "lat": 33.6989059, "lng": -84.39295829999999, "state": "Georgia"},{"name": "Stop N Grab", "lat": 33.9003812, "lng": -84.47604919999999, "state": "Georgia"},{"name": "Stop N Grab", "lat": 33.9820439, "lng": -84.5587125, "state": "Georgia"},{"name": "Stop N Grab", "lat": 33.7599777, "lng": -84.2408423, "state": "Georgia"},{"name": "Stop N Grab", "lat": 32.9056838, "lng": -83.6864982, "state": "Georgia"},{"name": "Stop N Grab", "lat": 33.7524609, "lng": -84.4024996, "state": "Georgia"},{"name": "Stop N Grab", "lat": 33.8180331, "lng": -84.35134029999999, "state": "Georgia"},{"name": "Stop N Grab", "lat": 33.7376602, "lng": -84.4350059, "state": "Georgia"},{"name": "Stop N Grab", "lat": 33.6576956, "lng": -84.2862182, "state": "Georgia"},{"name": "Stop N Grab", "lat": 33.7193998, "lng": -84.1553605, "state": "Georgia"},{"name": "Stop N Grab", "lat": 33.9694532, "lng": -84.2072137, "state": "Corners,"},{"name": "Stop N Grab", "lat": 34.0336707, "lng": -84.57988999999999, "state": "Georgia"},{"name": "Stop N Grab", "lat": 33.5619412, "lng": -84.32266489999999, "state": "Georgia"},{"name": "Stop N Grab", "lat": 33.7645639, "lng": -84.3494492, "state": "Georgia"},{"name": "Stop N Grab", "lat": 33.9650663, "lng": -84.4149496, "state": "Georgia"},{"name": "Stop N Grab", "lat": 34.3338658, "lng": -83.9033784, "state": "Georgia"},{"name": "Stop N Grab", "lat": 33.40850229999999, "lng": -84.6819215, "state": "Georgia"},{"name": "Stop N Grab", "lat": 34.0063117, "lng": -83.9202462, "state": "Georgia"},{"name": "Stop N Grab", "lat": 33.8876892, "lng": -84.5850744, "state": "Georgia"},{"name": "Stop N Grab", "lat": 33.3529373, "lng": -84.11551779999999, "state": "Grove,"},{"name": "Stop N Grab", "lat": 33.6706531, "lng": -84.3399623, "state": "Georgia"},{"name": "Stop N Grab", "lat": 33.7063807, "lng": -84.1133208, "state": "Georgia"},{"name": "Stop N Grab", "lat": 34.0834629, "lng": -84.6770003, "state": "Georgia"},{"name": "Stop N Grab", "lat": 33.7177699, "lng": -84.2755564, "state": "Georgia"},{"name": "Stop N Grab", "lat": 33.9424399, "lng": -83.3832872, "state": "Georgia"},{"name": "Stop N Grab", "lat": 32.8997408, "lng": -83.7039301, "state": "Georgia"},{"name": "Stop N Grab", "lat": 34.023938, "lng": -84.0515429, "state": "Georgia"},{"name": "Stop N Grab", "lat": 33.7595978, "lng": -84.39000829999999, "state": "Georgia"},{"name": "Stop N Grab", "lat": 33.8283407, "lng": -84.61344840000001, "state": "Georgia"},{"name": "Stop N Grab", "lat": 34.1434457, "lng": -83.9528388, "state": "Georgia"},{"name": "Stop N Grab", "lat": 33.5681619, "lng": -84.5355443, "state": "City,"},{"name": "Stop N Grab", "lat": 33.5944245, "lng": -84.4083728, "state": "Georgia"},{"name": "Stop N Grab", "lat": 34.3319854, "lng": -83.80804619999999, "state": "Georgia"},{"name": "Stop N Grab", "lat": 34.0939011, "lng": -83.8092345, "state": "Georgia"},{"name": "Stop N Grab", "lat": 33.9930786, "lng": -83.72609829999999, "state": "Georgia"},{"name": "Stop N Grab", "lat": 33.3837017, "lng": -84.283407, "state": "Georgia"},{"name": "Stop N Grab", "lat": 33.9624059, "lng": -83.39290299999999, "state": "Georgia"},{"name": "Stop N Grab", "lat": 34.488109, "lng": -83.582535, "state": "Georgia"},{"name": "Stop N Grab", "lat": 33.8365989, "lng": -84.368642, "state": "Georgia"},{"name": "Stop N Grab", "lat": 33.6552468, "lng": -84.49503229999999, "state": "Point,"},{"name": "Stop N Grab", "lat": 33.9874223, "lng": -83.7183587, "state": "Georgia"},{"name": "Stop N Grab", "lat": 32.4304929, "lng": -84.95376300000001, "state": "Georgia"},{"name": "Stop N Grab", "lat": 32.5065351, "lng": -84.9566377, "state": "Georgia"},{"name": "Stop N Grab", "lat": 32.5364026, "lng": -84.904923, "state": "Georgia"},{"name": "Stop N Grab", "lat": 32.4535372, "lng": -84.98962980000002, "state": "Georgia"},{"name": "Stop N Grab", "lat": 32.5334227, "lng": -84.9649644, "state": "Georgia"},{"name": "Stop N Grab", "lat": 32.4892986, "lng": -84.9310146, "state": "Georgia"},{"name": "Stop N Grab", "lat": 32.4692875, "lng": -84.9604219, "state": "Georgia"},{"name": "Stop N Grab", "lat": 32.4678376, "lng": -84.91108609999999, "state": "Georgia"},{"name": "Stop N Grab", "lat": 32.492997, "lng": -84.9123049, "state": "Georgia"},{"name": "Stop N Grab", "lat": 32.5236503, "lng": -84.9297866, "state": "Georgia"},{"name": "Stop N Grab", "lat": 32.5534979, "lng": -84.9470564, "state": "Georgia"},{"name": "Stop N Grab", "lat": 32.47964170000001, "lng": -84.9760373, "state": "Georgia"},{"name": "Stop N Grab", "lat": 32.4758449, "lng": -85.0403321, "state": "City,"},{"name": "Stop N Grab", "lat": 32.4127131, "lng": -84.944389, "state": "Georgia"},{"name": "Stop N Grab", "lat": 32.5227589, "lng": -84.889259, "state": "Georgia"},{"name": "Stop N Grab", "lat": 32.472656, "lng": -84.9868126, "state": "Georgia"},{"name": "Stop N Grab", "lat": 32.4993626, "lng": -85.0437651, "state": "City,"},{"name": "Stop N Grab", "lat": 32.5190987, "lng": -84.9570597, "state": "Georgia"},{"name": "Stop N Grab", "lat": 32.5552421, "lng": -83.6626034, "state": "Robins,"},{"name": "Stop N Grab", "lat": 32.4739828, "lng": -84.98787949999999, "state": "Georgia"},{"name": "Stop N Grab", "lat": 31.7114263, "lng": -83.6384278, "state": "Georgia"},{"name": "Stop N Grab", "lat": 32.5052021, "lng": -83.6618139, "state": "Georgia"},{"name": "Stop N Grab", "lat": 32.481285, "lng": -84.899231, "state": "Georgia"},{"name": "Stop N Grab", "lat": 32.4546509, "lng": -84.9456147, "state": "Georgia"},{"name": "Stop N Grab", "lat": 32.5191147, "lng": -84.95703519999999, "state": "Georgia"},{"name": "Stop N Grab", "lat": 32.497879, "lng": -85.0179326, "state": "City,"},{"name": "Stop N Grab", "lat": 32.47436, "lng": -83.70582970000001, "state": "Georgia"},{"name": "Stop N Grab", "lat": 31.5521878, "lng": -84.1364662, "state": "Georgia"},{"name": "Stop N Grab", "lat": 31.4501121, "lng": -83.5328104, "state": "Georgia"},{"name": "Stop N Grab", "lat": 30.8846348, "lng": -84.2041759, "state": "Georgia"},{"name": "Stop N Grab", "lat": 31.5288255, "lng": -84.1160706, "state": "Georgia"},{"name": "Stop N Grab", "lat": 31.6138871, "lng": -84.2244032, "state": "Georgia"},{"name": "Stop N Grab", "lat": 32.5073713, "lng": -84.96703839999999, "state": "Georgia"},{"name": "Stop N Grab", "lat": 31.46511, "lng": -84.1174319, "state": "Georgia"},{"name": "Stop N Grab", "lat": 32.5945445, "lng": -83.6500701, "state": "Robins,"},{"name": "Stop N Grab", "lat": 32.6179913, "lng": -83.668624, "state": "Robins,"},{"name": "Stop N Grab", "lat": 32.6188964, "lng": -83.6824493, "state": "Georgia"},{"name": "Stop N Grab", "lat": 32.4212622, "lng": -84.95081429999999, "state": "Georgia"},{"name": "Stop N Grab", "lat": 32.6178183, "lng": -83.6453561, "state": "Robins,"},{"name": "Stop N Grab", "lat": 32.5385441, "lng": -84.8700229, "state": "Columbus,"},{"name": "Stop N Grab", "lat": 31.5861712, "lng": -84.21986559999999, "state": "Georgia"},{"name": "Stop N Grab", "lat": 32.6217148, "lng": -83.70861959999999, "state": "Georgia"},{"name": "Stop N Grab", "lat": 32.0520222, "lng": -84.2255788, "state": "Georgia"},{"name": "Stop N Grab", "lat": 30.9113177, "lng": -83.2631883, "state": "Georgia"},{"name": "Stop N Grab", "lat": 32.4705216, "lng": -83.74171299999999, "state": "Georgia"},{"name": "Stop N Grab", "lat": 30.8976764, "lng": -83.3323138, "state": "Georgia"},{"name": "Stop N Grab", "lat": 32.4730365, "lng": -83.74608169999999, "state": "Georgia"},{"name": "Stop N Grab", "lat": 32.6178213, "lng": -83.64476169999999, "state": "Robins,"},{"name": "Stop N Grab", "lat": 31.2252401, "lng": -84.2117808, "state": "Georgia"},{"name": "Stop N Grab", "lat": 31.719075, "lng": -84.1728481, "state": "Georgia"},{"name": "Stop N Grab", "lat": 31.1337563, "lng": -84.1411102, "state": "Georgia"},{"name": "Stop N Grab", "lat": 30.90327, "lng": -84.5370181, "state": "Georgia"},{"name": "Stop N Grab", "lat": 32.6139182, "lng": -83.74117489999999, "state": "Georgia"},{"name": "Stop N Grab", "lat": 30.8881305, "lng": -84.56541639999999, "state": "Georgia"},{"name": "Stop N Grab", "lat": 31.7825203, "lng": -84.44586960000001, "state": "Georgia"},{"name": "Stop N Grab", "lat": 31.5300811, "lng": -83.8315477, "state": "Georgia"},{"name": "Stop N Grab", "lat": 32.5067423, "lng": -84.98931689999999, "state": "Georgia"},{"name": "Stop N Grab", "lat": 32.5486736, "lng": -83.5966153, "state": "Georgia"},{"name": "Stop N Grab", "lat": 32.6139936, "lng": -83.7412322, "state": "Georgia"},{"name": "Stop N Grab", "lat": 32.1974868, "lng": -83.1784823, "state": "Georgia"},{"name": "Stop N Grab", "lat": 30.2701818, "lng": -81.7724399, "state": "Jacksonville,"},{"name": "Stop N Grab", "lat": 30.2484234, "lng": -81.7854492, "state": "Heights,"},{"name": "Stop N Grab", "lat": 30.2621302, "lng": -81.7808617, "state": "Heights,"},{"name": "Stop N Grab", "lat": 30.2937664, "lng": -81.7775315, "state": "Jacksonville,"},{"name": "Stop N Grab", "lat": 30.0400808, "lng": -82.1651474, "state": "Florida"},{"name": "Stop N Grab", "lat": 30.1441344, "lng": -81.7646771, "state": "Park,"},{"name": "Stop N Grab", "lat": 30.0373862, "lng": -81.8978384, "state": "Florida"},{"name": "Stop N Grab", "lat": 30.0960387, "lng": -81.81035539999999, "state": "Florida"},{"name": "Stop N Grab", "lat": 30.2755161, "lng": -81.8322419, "state": "Springs,"},{"name": "Stop N Grab", "lat": 30.30546099999999, "lng": -81.8478617, "state": "Springs,"},{"name": "Stop N Grab", "lat": 30.3146976, "lng": -81.8491303, "state": "Jacksonville,"},{"name": "Stop N Grab", "lat": 30.282727, "lng": -82.1180066, "state": "Florida"},{"name": "Stop N Grab", "lat": 30.8544687, "lng": -83.28108689999999, "state": "Georgia"},{"name": "Stop N Grab", "lat": 31.7114263, "lng": -83.6384278, "state": "Georgia"},{"name": "Stop N Grab", "lat": 30.0885493, "lng": -81.94601589999999, "state": "Florida"},{"name": "Stop N Grab", "lat": 30.2750632, "lng": -82.1227813, "state": "Florida"},{"name": "Stop N Grab", "lat": 30.1802253, "lng": -82.69048889999999, "state": "City,"},{"name": "Stop N Grab", "lat": 30.53663899999999, "lng": -81.77448199999999, "state": "Florida"},{"name": "Stop N Grab", "lat": 30.1950515, "lng": -81.8249594, "state": "Jacksonville,"},{"name": "Stop N Grab", "lat": 30.2185192, "lng": -81.9413239, "state": "Jacksonville,"},{"name": "Stop N Grab", "lat": 31.4501121, "lng": -83.5328104, "state": "Georgia"},{"name": "Stop N Grab", "lat": 30.0634785, "lng": -81.9087721, "state": "Florida"},{"name": "Stop N Grab", "lat": 30.1136606, "lng": -81.86428810000001, "state": "Florida"},{"name": "Stop N Grab", "lat": 30.2853922, "lng": -81.9822779, "state": "Jacksonville,"},{"name": "Stop N Grab", "lat": 31.2095556, "lng": -82.3827415, "state": "Georgia"},{"name": "Stop N Grab", "lat": 30.84235409999999, "lng": -83.3251839, "state": "Georgia"},{"name": "Stop N Grab", "lat": 30.9113177, "lng": -83.2631883, "state": "Georgia"},{"name": "Stop N Grab", "lat": 30.5121454, "lng": -81.7941675, "state": "Florida"},{"name": "Stop N Grab", "lat": 30.2469135, "lng": -81.7986605, "state": "Heights"},{"name": "Stop N Grab", "lat": 30.049566, "lng": -81.809767, "state": "Cove"},{"name": "Stop N Grab", "lat": 30.0635928, "lng": -82.236108, "state": "Florida"},{"name": "Stop N Grab", "lat": 31.2471707, "lng": -82.3129479, "state": "Georgia"},{"name": "Stop N Grab", "lat": 30.8976764, "lng": -83.3323138, "state": "Georgia"},{"name": "Stop N Grab", "lat": 30.8292255, "lng": -82.00590509999999, "state": "Georgia"},{"name": "Stop N Grab", "lat": 30.68042759999999, "lng": -83.2210094, "state": "Park,"},{"name": "Stop N Grab", "lat": 30.69157, "lng": -81.91767999999999, "state": "Florida"},{"name": "Stop N Grab", "lat": 30.8347778, "lng": -83.312332, "state": "Georgia"},{"name": "Stop N Grab", "lat": 30.1154227, "lng": -81.77716219999999, "state": "Park,"},{"name": "Stop N Grab", "lat": 30.1877445, "lng": -82.6501159, "state": "City,"},{"name": "Stop N Grab", "lat": 31.5300811, "lng": -83.8315477, "state": "Georgia"},{"name": "Stop N Grab", "lat": 30.7846, "lng": -83.55674139999999, "state": "Georgia"},{"name": "Stop N Grab", "lat": 30.1322501, "lng": -81.78277829999999, "state": "Park,"},{"name": "Stop N Grab", "lat": 30.3729009, "lng": -81.7641206, "state": "Jacksonville,"},{"name": "Stop N Grab", "lat": 31.213704, "lng": -82.32698599999999, "state": "Georgia"},{"name": "Stop N Grab", "lat": 31.2024957, "lng": -81.9829263, "state": "Georgia"},{"name": "Stop N Grab", "lat": 31.5388965, "lng": -82.462358, "state": "Georgia"},{"name": "Stop N Grab", "lat": 31.450252, "lng": -83.52574400000002, "state": "Georgia"},{"name": "Stop N Grab", "lat": 31.23599609999999, "lng": -82.3708825, "state": "Georgia"},{"name": "Stop N Grab", "lat": 31.720908, "lng": -83.25262699999999, "state": "Georgia"},{"name": "Stop N Grab", "lat": 31.2299798, "lng": -82.3339388, "state": "Georgia"},{"name": "Stop N Grab", "lat": 31.2240963, "lng": -82.38808039999999, "state": "Georgia"},{"name": "Stop N Grab", "lat": 30.9464209, "lng": -83.4990902, "state": "Georgia"},{"name": "Stop N Grab", "lat": 31.20093, "lng": -83.25138, "state": "Georgia"},{"name": "Stop N Grab", "lat": 31.269336, "lng": -82.383099, "state": "Georgia"},{"name": "Stop N Grab", "lat": 31.6090884, "lng": -81.88215029999999, "state": "Georgia"},{"name": "Stop N Grab", "lat": 31.5326721, "lng": -82.4635203, "state": "Georgia"},{"name": "Stop N Grab", "lat": 31.2301729, "lng": -82.33369809999999, "state": "Georgia"},{"name": "Stop N Grab", "lat": 31.2023665, "lng": -81.9829577, "state": "Georgia"},{"name": "Stop N Grab", "lat": 31.222926, "lng": -82.354299, "state": "Georgia"},{"name": "Stop N Grab", "lat": 40.3443503, "lng": -75.6271266, "state": "Pennsylvania"},{"name": "Stop N Grab", "lat": 40.3318851, "lng": -75.6397878, "state": "Pennsylvania"},{"name": "Stop N Grab", "lat": 40.32846989999999, "lng": -75.33354899999999, "state": "Pennsylvania"},{"name": "Stop N Grab", "lat": 40.25355649999999, "lng": -75.65484409999999, "state": "Pennsylvania"},{"name": "Stop N Grab", "lat": 40.1415172, "lng": -75.1674772, "state": "Pennsylvania"},{"name": "Stop N Grab", "lat": 40.0460678, "lng": -75.42399019999999, "state": "Pennsylvania"},{"name": "Stop N Grab", "lat": 40.029592, "lng": -75.68402069999999, "state": "Pennsylvania"},{"name": "Stop N Grab", "lat": 40.2922066, "lng": -74.8726028, "state": "Crossing,"},{"name": "Stop N Grab", "lat": 39.8163799, "lng": -75.4585752, "state": "Delaware"},{"name": "Stop N Grab", "lat": 39.7860398, "lng": -75.5453893, "state": "Delaware"},{"name": "Stop N Grab", "lat": 40.3864826, "lng": -74.5702232, "state": "Junction,"},{"name": "Stop N Grab", "lat": 40.9137079, "lng": -74.5772325, "state": "New"},{"name": "Stop N Grab", "lat": 42.79958999999999, "lng": -76.121358, "state": "New"},{"name": "Stop N Grab", "lat": 42.991736, "lng": -75.95813, "state": "New"},{"name": "Stop N Grab", "lat": 40.3534349, "lng": -74.30608, "state": "Marlboro,"},{"name": "Stop N Grab", "lat": 40.6438596, "lng": -74.21259189999999, "state": "New"},{"name": "Stop N Grab", "lat": 43.1253354, "lng": -76.11817560000001, "state": "Syracuse,"},{"name": "Stop N Grab", "lat": 40.3443503, "lng": -75.6271266, "state": "Pennsylvania"},{"name": "Stop N Grab", "lat": 40.3318851, "lng": -75.6397878, "state": "Pennsylvania"},{"name": "Stop N Grab", "lat": 42.79958999999999, "lng": -76.121358, "state": "New"},{"name": "Stop N Grab", "lat": 40.32846989999999, "lng": -75.33354899999999, "state": "Pennsylvania"},{"name": "Stop N Grab", "lat": 40.25355649999999, "lng": -75.65484409999999, "state": "Pennsylvania"},{"name": "Stop N Grab", "lat": 42.9601801, "lng": -76.8456084, "state": "Falls,"},{"name": "Stop N Grab", "lat": 42.989233, "lng": -76.2507181, "state": "New"},{"name": "Stop N Grab", "lat": 42.9103034, "lng": -76.8047551, "state": "Falls,"},{"name": "Stop N Grab", "lat": 40.1415172, "lng": -75.1674772, "state": "Pennsylvania"},{"name": "Stop N Grab", "lat": 42.9145742, "lng": -75.37986289999999, "state": "New"},{"name": "Stop N Grab", "lat": 43.0309465, "lng": -76.0009522, "state": "New"},{"name": "Stop N Grab", "lat": 42.9635505, "lng": -76.7341156, "state": "New"},{"name": "Stop N Grab", "lat": 42.9892845, "lng": -76.25056459999999, "state": "New"},{"name": "Stop N Grab", "lat": 43.1253354, "lng": -76.11817560000001, "state": "Syracuse,"},{"name": "Stop N Grab", "lat": 40.0460678, "lng": -75.42399019999999, "state": "Pennsylvania"},{"name": "Stop N Grab", "lat": 43.127357, "lng": -76.078608, "state": "Syracuse,"},{"name": "Stop N Grab", "lat": 43.0963659, "lng": -75.6234738, "state": "New"},{"name": "Stop N Grab", "lat": 40.2922066, "lng": -74.8726028, "state": "Crossing,"},{"name": "Stop N Grab", "lat": 43.1766526, "lng": -76.07885139999999, "state": "New"},{"name": "Stop N Grab", "lat": 43.115986, "lng": -75.403893, "state": "New"},{"name": "Stop N Grab", "lat": 40.9137079, "lng": -74.5772325, "state": "New"},{"name": "Stop N Grab", "lat": 40.3864826, "lng": -74.5702232, "state": "Junction,"},{"name": "Stop N Grab", "lat": 40.029592, "lng": -75.68402069999999, "state": "Pennsylvania"},{"name": "Stop N Grab", "lat": 39.7860398, "lng": -75.5453893, "state": "Delaware"},{"name": "Stop N Grab", "lat": 39.8163799, "lng": -75.4585752, "state": "Delaware"},{"name": "Stop N Grab", "lat": 43.2474522, "lng": -75.99963869999999, "state": "New"},{"name": "Stop N Grab", "lat": 43.25198899999999, "lng": -75.185236, "state": "New"},{"name": "Stop N Grab", "lat": 40.6223375, "lng": -74.30490850000001, "state": "New"},{"name": "Stop N Grab", "lat": 40.6438596, "lng": -74.21259189999999, "state": "New"},{"name": "Stop N Grab", "lat": 43.4216716, "lng": -75.8851933, "state": "New"},{"name": "Stop N Grab", "lat": 40.6173498, "lng": -74.2509255, "state": "New"},{"name": "Stop N Grab", "lat": 40.6758067, "lng": -74.1045078, "state": "New"},{"name": "Stop N Grab", "lat": 40.9557413, "lng": -74.0308531, "state": "New"},{"name": "Stop N Grab", "lat": 43.0033785, "lng": -79.2707415, "state": "Ontario,"},{"name": "Stop N Grab", "lat": 39.1809928, "lng": -77.2616182, "state": "Maryland"},{"name": "Stop N Grab", "lat": 41.9488422, "lng": -79.98935329999999, "state": "Pennsylvania"},{"name": "Stop N Grab", "lat": 40.743548, "lng": -73.5057309, "state": "New"},{"name": "Stop N Grab", "lat": 41.6643557, "lng": -78.8115589, "state": "Pennsylvania"},{"name": "Stop N Grab", "lat": 41.1021234, "lng": -80.68830439999999, "state": "Ohio"},{"name": "Stop N Grab", "lat": 41.17516699999999, "lng": -80.76599800000001, "state": "Ohio"},{"name": "Stop N Grab", "lat": 41.2589753, "lng": -80.8685493, "state": "Ohio"},{"name": "Stop N Grab", "lat": 41.2419709, "lng": -80.8176313, "state": "Ohio"},{"name": "Stop N Grab", "lat": 40.4410131, "lng": -80.2404935, "state": "Pennsylvania"},{"name": "Stop N Grab", "lat": 41.8555101, "lng": -80.7856509, "state": "Ohio"},{"name": "Stop N Grab", "lat": 40.60695, "lng": -80.27873249999999, "state": "Pennsylvania"},{"name": "Stop N Grab", "lat": 41.326786, "lng": -80.72640200000001, "state": "Ohio"},{"name": "Stop N Grab", "lat": 41.0551287, "lng": -80.6033149, "state": "Ohio"},{"name": "Stop N Grab", "lat": 40.9231576, "lng": -81.12415759999999, "state": "Ohio"},{"name": "Stop N Grab", "lat": 40.9271936, "lng": -81.10516899999999, "state": "Ohio"},{"name": "Stop N Grab", "lat": 41.2397081, "lng": -80.47130419999999, "state": "Pennsylvania"},{"name": "Stop N Grab", "lat": 41.0240894, "lng": -81.1474463, "state": "Ohio"},{"name": "Stop N Grab", "lat": 40.3489746, "lng": -80.6284897, "state": "Ohio"},{"name": "Stop N Grab", "lat": 41.8013208, "lng": -81.0745777, "state": "Ohio"},{"name": "Stop N Grab", "lat": 41.4634219, "lng": -81.0864316, "state": "Ohio"},{"name": "Stop N Grab", "lat": 40.893578, "lng": -80.694065, "state": "Ohio"},{"name": "Stop N Grab", "lat": 41.4612713, "lng": -81.07352399999999, "state": "Ohio"},{"name": "Stop N Grab", "lat": 40.90065630000001, "lng": -80.8455105, "state": "Ohio"},{"name": "Stop N Grab", "lat": 40.9020047, "lng": -81.1173724, "state": "Ohio"},{"name": "Stop N Grab", "lat": 41.5837335, "lng": -81.190078, "state": "Ohio"},{"name": "Stop N Grab", "lat": 40.7490285, "lng": -80.3342294, "state": "Falls,"},{"name": "Stop N Grab", "lat": 40.90130509999999, "lng": -80.86750119999999, "state": "Ohio"},{"name": "Stop N Grab", "lat": 41.1560542, "lng": -80.5730155, "state": "Ohio"},{"name": "Stop N Grab", "lat": 41.789739, "lng": -80.947315, "state": "Ohio"},{"name": "Stop N Grab", "lat": 41.8579433, "lng": -80.80844789999999, "state": "Ohio"},{"name": "Stop N Grab", "lat": 41.9488422, "lng": -79.98935329999999, "state": "Pennsylvania"},{"name": "Stop N Grab", "lat": 41.80357770000001, "lng": -80.9511674, "state": "Ohio"},{"name": "Stop N Grab", "lat": 40.8350234, "lng": -80.53942719999999, "state": "Palestine,"},{"name": "Stop N Grab", "lat": 41.1746281, "lng": -80.4537794, "state": "Middlesex,"},{"name": "Stop N Grab", "lat": 41.8920509, "lng": -80.8062267, "state": "Ohio"},{"name": "Stop N Grab", "lat": 40.57434, "lng": -81.088455, "state": "Ohio"},{"name": "Stop N Grab", "lat": 41.9450781, "lng": -80.559938, "state": "Ohio"},{"name": "Stop N Grab", "lat": 40.73477949999999, "lng": -81.0941938, "state": "Ohio"},{"name": "Stop N Grab", "lat": 40.8792183, "lng": -80.842121, "state": "Ohio"},{"name": "Stop N Grab", "lat": 41.2197487, "lng": -80.5202003, "state": "Ohio"},{"name": "Stop N Grab", "lat": 41.5348462, "lng": -80.86643529999999, "state": "Ohio"},{"name": "Stop N Grab", "lat": 41.1860207, "lng": -80.9715085, "state": "Falls,"},{"name": "Stop N Grab", "lat": 40.92355, "lng": -81.016685, "state": "Ohio"},{"name": "Stop N Grab", "lat": 41.2347318, "lng": -81.040689, "state": "Ohio"},{"name": "Stop N Grab", "lat": 41.7401972, "lng": -80.7690604, "state": "Ohio"},{"name": "Stop N Grab", "lat": 41.88267099999999, "lng": -80.66765029999999, "state": "Ohio"},{"name": "Stop N Grab", "lat": 40.3965777, "lng": -81.0850081, "state": "Ohio"},{"name": "Stop N Grab", "lat": 40.7754082, "lng": -80.7683089, "state": "Ohio"},{"name": "Stop N Grab", "lat": 40.9013207, "lng": -80.8203034, "state": "Ohio"},{"name": "Stop N Grab", "lat": 41.7894209, "lng": -80.94783, "state": "Ohio"},{"name": "Stop N Grab", "lat": 41.8783723, "lng": -80.66722779999999, "state": "Ohio"},{"name": "Stop N Grab", "lat": 41.316762, "lng": -80.731617, "state": "Ohio"},{"name": "Stop N Grab", "lat": 41.8783723, "lng": -80.66722779999999, "state": "Ohio"},{"name": "Stop N Grab", "lat": 41.5297863, "lng": -81.2162206, "state": "Ohio"},{"name": "Stop N Grab", "lat": 41.1565373, "lng": -81.2194365, "state": "Ohio"},{"name": "Stop N Grab", "lat": 40.9231684, "lng": -81.12415820000001, "state": "Ohio"},{"name": "Stop N Grab", "lat": 41.2293622, "lng": -80.66344819999999, "state": "Vienna"},{"name": "Stop N Grab", "lat": 41.106476, "lng": -81.242989, "state": "Ohio"},{"name": "Stop N Grab", "lat": 41.164409, "lng": -81.242294, "state": "Ohio"},{"name": "Stop N Grab", "lat": 42.1106151, "lng": -80.0557362, "state": "Pennsylvania"},{"name": "Stop N Grab", "lat": 41.2854019, "lng": -81.2234722, "state": "Ohio"},{"name": "Stop N Grab", "lat": 41.0326001, "lng": -81.2497052, "state": "Ohio"},{"name": "Stop N Grab", "lat": 39.2903944, "lng": -80.3570707, "state": "West"},{"name": "Stop N Grab", "lat": 39.6568408, "lng": -79.9785328, "state": "West"},{"name": "Stop N Grab", "lat": 39.604164, "lng": -79.91558719999999, "state": "West"},{"name": "Stop N Grab", "lat": 39.6680177, "lng": -79.9183967, "state": "West"},{"name": "Stop N Grab", "lat": 39.4937538, "lng": -80.1088244, "state": "West"},{"name": "Stop N Grab", "lat": 39.4788247, "lng": -80.1267575, "state": "West"},{"name": "Stop N Grab", "lat": 39.634184, "lng": -79.96798509999999, "state": "West"},{"name": "Stop N Grab", "lat": 39.5236692, "lng": -79.9141695, "state": "West"},{"name": "Stop N Grab", "lat": 39.614289, "lng": -79.9512113, "state": "West"},{"name": "Stop N Grab", "lat": 39.4718629, "lng": -79.6895759, "state": "West"},{"name": "Stop N Grab", "lat": 39.5345094, "lng": -79.7976613, "state": "West"},{"name": "Stop N Grab", "lat": 39.4295116, "lng": -80.2774579, "state": "West"},{"name": "Stop N Grab", "lat": 39.46339760000001, "lng": -80.22183489999999, "state": "West"},{"name": "Stop N Grab", "lat": 39.3383029, "lng": -80.0256775, "state": "West"},{"name": "Stop N Grab", "lat": 39.592777, "lng": -80.24788060000002, "state": "West"},{"name": "Stop N Grab", "lat": 39.42952, "lng": -80.2777136, "state": "West"},{"name": "Stop N Grab", "lat": 39.8650141, "lng": -79.7088062, "state": "Pennsylvania"},{"name": "Stop N Grab", "lat": 39.8947316, "lng": -79.74243229999999, "state": "Pennsylvania"},{"name": "Stop N Grab", "lat": 39.8964486, "lng": -79.9766578, "state": "Pennsylvania"},{"name": "Stop N Grab", "lat": 39.451797, "lng": -80.26252699999999, "state": "West"},{"name": "Stop N Grab", "lat": 39.7705334, "lng": -82.0984806, "state": "Ohio"},{"name": "Stop N Grab", "lat": 39.9556757, "lng": -80.7536339, "state": "Dale,"},{"name": "Stop N Grab", "lat": 39.96998869999999, "lng": -81.5398811, "state": "Ohio"},{"name": "Stop N Grab", "lat": 39.5237668, "lng": -79.91412969999999, "state": "West"},{"name": "Stop N Grab", "lat": 40.0101896, "lng": -79.6176649, "state": "Pennsylvania"},{"name": "Stop N Grab", "lat": 39.9932793, "lng": -81.7353481, "state": "Concord,"},{"name": "Stop N Grab", "lat": 40.027625, "lng": -81.58421469999999, "state": "Ohio"},{"name": "Stop N Grab", "lat": 40.0218154, "lng": -80.74280279999999, "state": "Ohio"},{"name": "Stop N Grab", "lat": 39.66748219999999, "lng": -79.9181128, "state": "West"},{"name": "Stop N Grab", "lat": 39.7195319, "lng": -82.2061542, "state": "Lexington,"},{"name": "Stop N Grab", "lat": 40.1201753, "lng": -82.01059939999999, "state": "Ohio"},{"name": "Stop N Grab", "lat": 40.197442, "lng": -80.2686153, "state": "Pennsylvania"},{"name": "Stop N Grab", "lat": 39.8986788, "lng": -82.4093583, "state": "Ohio"},{"name": "Stop N Grab", "lat": 40.04970480000001, "lng": -82.4023005, "state": "Ohio"},{"name": "Stop N Grab", "lat": 40.0479005, "lng": -82.4414403, "state": "Ohio"},{"name": "Stop N Grab", "lat": 38.13782399999999, "lng": -79.0696258, "state": "Virginia"},{"name": "Stop N Grab", "lat": 40.0522561, "lng": -82.4253469, "state": "Ohio"},{"name": "Stop N Grab", "lat": 40.0570159, "lng": -82.41802799999999, "state": "Ohio"},{"name": "Stop N Grab", "lat": 38.0773546, "lng": -79.08924549999999, "state": "Virginia"},{"name": "Stop N Grab", "lat": 39.8998567, "lng": -82.53425639999999, "state": "Ohio"},{"name": "Stop N Grab", "lat": 39.7140133, "lng": -82.58280140000001, "state": "Ohio"},{"name": "Stop N Grab", "lat": 39.8413317, "lng": -82.569124, "state": "Ohio"},{"name": "Stop N Grab", "lat": 39.729336, "lng": -82.6121567, "state": "Ohio"},{"name": "Stop N Grab", "lat": 40.3489746, "lng": -80.6284897, "state": "Ohio"},{"name": "Stop N Grab", "lat": 39.88414390000001, "lng": -82.7594064, "state": "Ohio"},{"name": "Stop N Grab", "lat": 40.4410131, "lng": -80.2404935, "state": "Pennsylvania"},{"name": "Stop N Grab", "lat": 39.9874259, "lng": -82.7671122, "state": "Ohio"},{"name": "Stop N Grab", "lat": 40.471594, "lng": -80.02724839999999, "state": "Pennsylvania"},{"name": "Stop N Grab", "lat": 40.2300297, "lng": -82.4526922, "state": "Ohio"},{"name": "Stop N Grab", "lat": 38.4342019, "lng": -78.8471366, "state": "Virginia"},{"name": "Stop N Grab", "lat": 38.4198327, "lng": -78.8699918, "state": "Virginia"},{"name": "Stop N Grab", "lat": 40.4002183, "lng": -81.3480695, "state": "Ohio"},{"name": "Stop N Grab", "lat": 40.4948164, "lng": -79.9367152, "state": "Pennsylvania"},{"name": "Stop N Grab", "lat": 40.3965777, "lng": -81.0850081, "state": "Ohio"},{"name": "Stop N Grab", "lat": 39.5803824, "lng": -78.84764249999999, "state": "Maryland"},{"name": "Stop N Grab", "lat": 38.4416163, "lng": -78.8544338, "state": "Virginia"},{"name": "Stop N Grab", "lat": 37.3865823, "lng": -79.90339279999999, "state": "Virginia"},{"name": "Stop N Grab", "lat": 40.2762154, "lng": -81.75560519999999, "state": "Lafayette,"},{"name": "Stop N Grab", "lat": 39.0767142, "lng": -78.9647973, "state": "West"},{"name": "Stop N Grab", "lat": 39.927398, "lng": -82.9254083, "state": "Ohio"},{"name": "Stop N Grab", "lat": 39.3624673, "lng": -74.61850249999999, "state": "Harbor"},{"name": "Stop N Grab", "lat": 38.8418291, "lng": -76.7278671, "state": "Marlboro,"},{"name": "Stop N Grab", "lat": 39.272249, "lng": -76.6305139, "state": "Maryland"},{"name": "Stop N Grab", "lat": 39.7076314, "lng": -75.4698174, "state": "Grove,"},{"name": "Stop N Grab", "lat": 39.2371701, "lng": -76.6624271, "state": "Maryland"},{"name": "Stop N Grab", "lat": 39.4191477, "lng": -76.6691243, "state": "Maryland"},{"name": "Stop N Grab", "lat": 39.3429286, "lng": -76.6405954, "state": "Maryland"},{"name": "Stop N Grab", "lat": 39.3592128, "lng": -74.4369269, "state": "City,"},{"name": "Stop N Grab", "lat": 39.1994804, "lng": -76.81471789999999, "state": "Maryland"},{"name": "Stop N Grab", "lat": 39.25201920000001, "lng": -76.81647009999999, "state": "City,"},{"name": "Stop N Grab", "lat": 39.7860398, "lng": -75.5453893, "state": "Delaware"},{"name": "Stop N Grab", "lat": 39.5685718, "lng": -74.3703062, "state": "Egg"},{"name": "Stop N Grab", "lat": 39.2094226, "lng": -76.8010257, "state": "Maryland"},{"name": "Stop N Grab", "lat": 38.841143, "lng": -76.7279269, "state": "Marlboro,"},{"name": "Stop N Grab", "lat": 39.6015398, "lng": -74.3598277, "state": "Egg"},{"name": "Stop N Grab", "lat": 39.8163799, "lng": -75.4585752, "state": "Delaware"},{"name": "Stop N Grab", "lat": 39.7307929, "lng": -74.2939504, "state": "Stafford"},{"name": "Stop N Grab", "lat": 32.8581278, "lng": -80.0300852, "state": "Charleston,"},{"name": "Stop N Grab", "lat": 32.80128030000001, "lng": -80.01717219999999, "state": "South"},{"name": "Stop N Grab", "lat": 33.6955082, "lng": -78.87961949999999, "state": "Beach,"},{"name": "Stop N Grab", "lat": 32.9148425, "lng": -80.1074084, "state": "Charleston,"},{"name": "Stop N Grab", "lat": 33.6918023, "lng": -79.0074765, "state": "Beach,"},{"name": "Stop N Grab", "lat": 33.0161274, "lng": -80.2057018, "state": "South"},{"name": "Stop N Grab", "lat": 32.8002396, "lng": -79.94876719999999, "state": "South"},{"name": "Stop N Grab", "lat": 33.7266452, "lng": -78.8694929, "state": "Beach,"},{"name": "Stop N Grab", "lat": 33.6908055, "lng": -78.8964245, "state": "Beach,"},{"name": "Stop N Grab", "lat": 32.7869966, "lng": -79.93414659999999, "state": "South"},{"name": "Stop N Grab", "lat": 32.8079005, "lng": -80.1119849, "state": "South"},{"name": "Stop N Grab", "lat": 32.1753836, "lng": -80.730699, "state": "Head"},{"name": "Stop N Grab", "lat": 32.9701669, "lng": -80.0115517, "state": "Creek,"},{"name": "Stop N Grab", "lat": 32.7348152, "lng": -79.9691382, "state": "South"},{"name": "Stop N Grab", "lat": 32.3959046, "lng": -80.76607109999999, "state": "South"},{"name": "Stop N Grab", "lat": 32.7937355, "lng": -79.93173089999999, "state": "South"},{"name": "Stop N Grab", "lat": 33.7387874, "lng": -78.82930089999999, "state": "Beach,"},{"name": "Stop N Grab", "lat": 33.0259048, "lng": -80.1701874, "state": "South"},{"name": "Stop N Grab", "lat": 33.684211, "lng": -78.986407, "state": "Beach,"},{"name": "Stop N Grab", "lat": 33.7486538, "lng": -78.9581232, "state": "Beach,"},{"name": "Stop N Grab", "lat": 32.4158605, "lng": -80.6550669, "state": "South"},{"name": "Stop N Grab", "lat": 33.6416022, "lng": -78.9488564, "state": "Beach,"},{"name": "Stop N Grab", "lat": 32.7925164, "lng": -80.04387469999999, "state": "South"},{"name": "Stop N Grab", "lat": 32.902783, "lng": -79.985074, "state": "Charleston,"},{"name": "Stop N Grab", "lat": 32.4268342, "lng": -80.72688079999999, "state": "South"},{"name": "Stop N Grab", "lat": 32.1577008, "lng": -80.7639061, "state": "Head"},{"name": "Stop N Grab", "lat": 32.8614603, "lng": -79.90822399999999, "state": "Island,"},{"name": "Stop N Grab", "lat": 32.1437651, "lng": -80.7523217, "state": "Head"},{"name": "Stop N Grab", "lat": 33.0376181, "lng": -80.1542417, "state": "South"},{"name": "Stop N Grab", "lat": 33.0260773, "lng": -80.0893948, "state": "South"},{"name": "Stop N Grab", "lat": 33.6300861, "lng": -79.0340188, "state": "Beach,"},{"name": "Stop N Grab", "lat": 32.8075896, "lng": -79.8786113, "state": "Pleasant,"},{"name": "Stop N Grab", "lat": 32.7202904, "lng": -80.08190809999999, "state": "Island,"},{"name": "Stop N Grab", "lat": 33.0178425, "lng": -80.03533689999999, "state": "Creek,"},{"name": "Stop N Grab", "lat": 33.7105312, "lng": -78.8991418, "state": "Beach,"},{"name": "Stop N Grab", "lat": 32.8340797, "lng": -80.0452194, "state": "South"},{"name": "Stop N Grab", "lat": 32.8684311, "lng": -80.0121293, "state": "Charleston,"},{"name": "Stop N Grab", "lat": 32.9010092, "lng": -80.0276272, "state": "Charleston,"},{"name": "Stop N Grab", "lat": 33.7841832, "lng": -79.021458, "state": "South"},{"name": "Stop N Grab", "lat": 32.9654711, "lng": -80.0435759, "state": "Charleston,"},{"name": "Stop N Grab", "lat": 32.4003644, "lng": -80.6848022, "state": "Royal,"},{"name": "Stop N Grab", "lat": 32.9175027, "lng": -80.114032, "state": "Charleston,"},{"name": "Stop N Grab", "lat": 32.7975021, "lng": -79.8975318, "state": "Pleasant,"},{"name": "Stop N Grab", "lat": 32.2157027, "lng": -80.702066, "state": "Head"},{"name": "Stop N Grab", "lat": 32.7926748, "lng": -79.9889395, "state": "South"},{"name": "Stop N Grab", "lat": 33.7010988, "lng": -78.90424449999999, "state": "Beach,"},{"name": "Stop N Grab", "lat": 32.8257414, "lng": -80.0396954, "state": "South"},{"name": "Stop N Grab", "lat": 33.7428733, "lng": -78.84023599999999, "state": "Beach,"},{"name": "Stop N Grab", "lat": 32.8399682, "lng": -79.8182415, "state": "Pleasant,"},{"name": "Stop N Grab", "lat": 33.8067755, "lng": -79.0181597, "state": "South"},{"name": "Stop N Grab", "lat": 32.817725, "lng": -79.8612832, "state": "Pleasant,"},{"name": "Stop N Grab", "lat": 32.9015835, "lng": -80.0770936, "state": "Charleston,"},{"name": "Stop N Grab", "lat": 33.6748543, "lng": -78.9046218, "state": "Beach,"},{"name": "Stop N Grab", "lat": 32.9658121, "lng": -80.1664816, "state": "South"},{"name": "Stop N Grab", "lat": 32.858374, "lng": -79.79726269999999, "state": "Pleasant,"},{"name": "Stop N Grab", "lat": 32.9147729, "lng": -79.8861969, "state": "South"},{"name": "Stop N Grab", "lat": 33.7535512, "lng": -78.8667978, "state": "Beach,"},{"name": "Stop N Grab", "lat": 33.8015038, "lng": -79.0778856, "state": "South"},{"name": "Stop N Grab", "lat": 33.6297356, "lng": -78.9633759, "state": "Beach,"},{"name": "Stop N Grab", "lat": 33.5261427, "lng": -80.888213, "state": "South"},{"name": "Stop N Grab", "lat": 35.0435866, "lng": -78.96029159999999, "state": "North"},{"name": "Stop N Grab", "lat": 35.0617972, "lng": -79.01557020000001, "state": "North"},{"name": "Stop N Grab", "lat": 33.6955082, "lng": -78.87961949999999, "state": "Beach,"},{"name": "Stop N Grab", "lat": 33.6918023, "lng": -79.0074765, "state": "Beach,"},{"name": "Stop N Grab", "lat": 34.74274860000001, "lng": -77.36988339999999, "state": "North"},{"name": "Stop N Grab", "lat": 33.7266452, "lng": -78.8694929, "state": "Beach,"},{"name": "Stop N Grab", "lat": 33.6908055, "lng": -78.8964245, "state": "Beach,"},{"name": "Stop N Grab", "lat": 34.7166958, "lng": -77.32098340000002, "state": "North"},{"name": "Stop N Grab", "lat": 33.8040598, "lng": -78.72164769999999, "state": "Myrtle"},{"name": "Stop N Grab", "lat": 34.17662809999999, "lng": -77.92525479999999, "state": "North"},{"name": "Stop N Grab", "lat": 35.005436, "lng": -78.96762609999999, "state": "Mills,"},{"name": "Stop N Grab", "lat": 33.7387874, "lng": -78.82930089999999, "state": "Beach,"},{"name": "Stop N Grab", "lat": 34.9970743, "lng": -78.90154369999999, "state": "North"},{"name": "Stop N Grab", "lat": 33.684211, "lng": -78.986407, "state": "Beach,"},{"name": "Stop N Grab", "lat": 33.7486538, "lng": -78.9581232, "state": "Beach,"},{"name": "Stop N Grab", "lat": 33.6416022, "lng": -78.9488564, "state": "Beach,"},{"name": "Stop N Grab", "lat": 34.8067871, "lng": -77.4487473, "state": "North"},{"name": "Stop N Grab", "lat": 34.290221, "lng": -77.8712177, "state": "North"},{"name": "Stop N Grab", "lat": 35.008102, "lng": -78.9190824, "state": "North"},{"name": "Stop N Grab", "lat": 35.0190435, "lng": -78.9167166, "state": "North"},{"name": "Stop N Grab", "lat": 34.7318764, "lng": -77.4727372, "state": "North"},{"name": "Stop N Grab", "lat": 35.032414, "lng": -79.096307, "state": "North"},{"name": "Stop N Grab", "lat": 33.6300861, "lng": -79.0340188, "state": "Beach,"},{"name": "Stop N Grab", "lat": 35.03939769999999, "lng": -78.99783049999999, "state": "North"},{"name": "Stop N Grab", "lat": 33.7105312, "lng": -78.8991418, "state": "Beach,"},{"name": "Stop N Grab", "lat": 34.0896866, "lng": -77.8959387, "state": "North"},{"name": "Stop N Grab", "lat": 33.7841832, "lng": -79.021458, "state": "South"},{"name": "Stop N Grab", "lat": 34.7640674, "lng": -77.4203273, "state": "North"},{"name": "Stop N Grab", "lat": 33.7010988, "lng": -78.90424449999999, "state": "Beach,"},{"name": "Stop N Grab", "lat": 35.0587437, "lng": -78.9699393, "state": "North"},{"name": "Stop N Grab", "lat": 35.0590518, "lng": -79.0484081, "state": "North"},{"name": "Stop N Grab", "lat": 34.9756236, "lng": -78.951386, "state": "Mills,"},{"name": "Stop N Grab", "lat": 34.7576292, "lng": -77.4805513, "state": "North"},{"name": "Stop N Grab", "lat": 33.799768, "lng": -78.73452259999999, "state": "Myrtle"},{"name": "Stop N Grab", "lat": 33.7428733, "lng": -78.84023599999999, "state": "Beach,"},{"name": "Stop N Grab", "lat": 33.8067755, "lng": -79.0181597, "state": "South"},{"name": "Stop N Grab", "lat": 34.1942358, "lng": -78.0674341, "state": "North"},{"name": "Stop N Grab", "lat": 34.2542729, "lng": -77.8451126, "state": "North"},{"name": "Stop N Grab", "lat": 35.0391828, "lng": -78.9981265, "state": "North"},{"name": "Stop N Grab", "lat": 33.6748543, "lng": -78.9046218, "state": "Beach,"},{"name": "Stop N Grab", "lat": 34.9774609, "lng": -78.9848852, "state": "Mills,"},{"name": "Stop N Grab", "lat": 35.0262101, "lng": -78.9431896, "state": "North"},{"name": "Stop N Grab", "lat": 34.371801, "lng": -77.7069913, "state": "North"},{"name": "Stop N Grab", "lat": 34.2650145, "lng": -77.8354403, "state": "North"},{"name": "Stop N Grab", "lat": 33.8432993, "lng": -78.6610367, "state": "Myrtle"},{"name": "Stop N Grab", "lat": 33.7535512, "lng": -78.8667978, "state": "Beach,"},{"name": "Stop N Grab", "lat": 33.8670239, "lng": -78.6359793, "state": "River,"},{"name": "Stop N Grab", "lat": 33.8015038, "lng": -79.0778856, "state": "South"},{"name": "Stop N Grab", "lat": 33.6297356, "lng": -78.9633759, "state": "Beach,"},{"name": "Stop N Grab", "lat": 34.9351756, "lng": -78.9212324, "state": "Mills,"},{"name": "Stop N Grab", "lat": 34.2302818, "lng": -77.9921768, "state": "North"},{"name": "Stop N Grab", "lat": 33.7605277, "lng": -78.860132, "state": "Beach,"},{"name": "Stop N Grab", "lat": 34.7601535, "lng": -77.4152029, "state": "North"},{"name": "Stop N Grab", "lat": 33.8092991, "lng": -78.70954739999999, "state": "Myrtle"},{"name": "Stop N Grab", "lat": 35.0400061, "lng": -78.9067795, "state": "North"},{"name": "Stop N Grab", "lat": 33.7994031, "lng": -79.01814379999999, "state": "South"},{"name": "Stop N Grab", "lat": 33.9814943, "lng": -78.3726095, "state": "North"},{"name": "Stop N Grab", "lat": 35.0056917, "lng": -78.81642029999999, "state": "North"},{"name": "Stop N Grab", "lat": 34.7434822, "lng": -77.3796326, "state": "North"},{"name": "Stop N Grab", "lat": 33.7127233, "lng": -78.86038099999999, "state": "Beach,"},{"name": "Stop N Grab", "lat": 32.8581278, "lng": -80.0300852, "state": "Charleston,"},{"name": "Stop N Grab", "lat": 32.80128030000001, "lng": -80.01717219999999, "state": "South"},{"name": "Stop N Grab", "lat": 33.6955082, "lng": -78.87961949999999, "state": "Beach,"},{"name": "Stop N Grab", "lat": 32.9148425, "lng": -80.1074084, "state": "Charleston,"},{"name": "Stop N Grab", "lat": 33.6918023, "lng": -79.0074765, "state": "Beach,"},{"name": "Stop N Grab", "lat": 32.8002396, "lng": -79.94876719999999, "state": "South"},{"name": "Stop N Grab", "lat": 33.7266452, "lng": -78.8694929, "state": "Beach,"},{"name": "Stop N Grab", "lat": 33.6908055, "lng": -78.8964245, "state": "Beach,"},{"name": "Stop N Grab", "lat": 32.7869966, "lng": -79.93414659999999, "state": "South"},{"name": "Stop N Grab", "lat": 32.8079005, "lng": -80.1119849, "state": "South"},{"name": "Stop N Grab", "lat": 32.9701669, "lng": -80.0115517, "state": "Creek,"},{"name": "Stop N Grab", "lat": 33.8040598, "lng": -78.72164769999999, "state": "Myrtle"},{"name": "Stop N Grab", "lat": 32.7348152, "lng": -79.9691382, "state": "South"},{"name": "Stop N Grab", "lat": 32.7937355, "lng": -79.93173089999999, "state": "South"},{"name": "Stop N Grab", "lat": 33.7387874, "lng": -78.82930089999999, "state": "Beach,"},{"name": "Stop N Grab", "lat": 33.0259048, "lng": -80.1701874, "state": "South"},{"name": "Stop N Grab", "lat": 33.684211, "lng": -78.986407, "state": "Beach,"},{"name": "Stop N Grab", "lat": 33.7486538, "lng": -78.9581232, "state": "Beach,"},{"name": "Stop N Grab", "lat": 33.6416022, "lng": -78.9488564, "state": "Beach,"},{"name": "Stop N Grab", "lat": 32.7925164, "lng": -80.04387469999999, "state": "South"},{"name": "Stop N Grab", "lat": 32.902783, "lng": -79.985074, "state": "Charleston,"},{"name": "Stop N Grab", "lat": 32.8614603, "lng": -79.90822399999999, "state": "Island,"},{"name": "Stop N Grab", "lat": 33.0376181, "lng": -80.1542417, "state": "South"},{"name": "Stop N Grab", "lat": 34.1763182, "lng": -79.8100157, "state": "South"},{"name": "Stop N Grab", "lat": 33.0260773, "lng": -80.0893948, "state": "South"},{"name": "Stop N Grab", "lat": 33.6300861, "lng": -79.0340188, "state": "Beach,"},{"name": "Stop N Grab", "lat": 32.8075896, "lng": -79.8786113, "state": "Pleasant,"},{"name": "Stop N Grab", "lat": 32.7202904, "lng": -80.08190809999999, "state": "Island,"},{"name": "Stop N Grab", "lat": 33.0178425, "lng": -80.03533689999999, "state": "Creek,"},{"name": "Stop N Grab", "lat": 33.7105312, "lng": -78.8991418, "state": "Beach,"},{"name": "Stop N Grab", "lat": 32.8340797, "lng": -80.0452194, "state": "South"},{"name": "Stop N Grab", "lat": 32.8684311, "lng": -80.0121293, "state": "Charleston,"},{"name": "Stop N Grab", "lat": 32.9010092, "lng": -80.0276272, "state": "Charleston,"},{"name": "Stop N Grab", "lat": 33.7841832, "lng": -79.021458, "state": "South"},{"name": "Stop N Grab", "lat": 32.9654711, "lng": -80.0435759, "state": "Charleston,"},{"name": "Stop N Grab", "lat": 32.9175027, "lng": -80.114032, "state": "Charleston,"},{"name": "Stop N Grab", "lat": 32.7975021, "lng": -79.8975318, "state": "Pleasant,"},{"name": "Stop N Grab", "lat": 32.7926748, "lng": -79.9889395, "state": "South"},{"name": "Stop N Grab", "lat": 33.7010988, "lng": -78.90424449999999, "state": "Beach,"},{"name": "Stop N Grab", "lat": 32.8257414, "lng": -80.0396954, "state": "South"},{"name": "Stop N Grab", "lat": 33.799768, "lng": -78.73452259999999, "state": "Myrtle"},{"name": "Stop N Grab", "lat": 33.7428733, "lng": -78.84023599999999, "state": "Beach,"},{"name": "Stop N Grab", "lat": 32.8399682, "lng": -79.8182415, "state": "Pleasant,"},{"name": "Stop N Grab", "lat": 33.8067755, "lng": -79.0181597, "state": "South"},{"name": "Stop N Grab", "lat": 32.817725, "lng": -79.8612832, "state": "Pleasant,"},{"name": "Stop N Grab", "lat": 32.9015835, "lng": -80.0770936, "state": "Charleston,"},{"name": "Stop N Grab", "lat": 34.1942358, "lng": -78.0674341, "state": "North"},{"name": "Stop N Grab", "lat": 33.6748543, "lng": -78.9046218, "state": "Beach,"},{"name": "Stop N Grab", "lat": 32.9658121, "lng": -80.1664816, "state": "South"},{"name": "Stop N Grab", "lat": 32.858374, "lng": -79.79726269999999, "state": "Pleasant,"},{"name": "Stop N Grab", "lat": 32.9147729, "lng": -79.8861969, "state": "South"},{"name": "Stop N Grab", "lat": 33.8432993, "lng": -78.6610367, "state": "Myrtle"},{"name": "Stop N Grab", "lat": 33.7535512, "lng": -78.8667978, "state": "Beach,"},{"name": "Stop N Grab", "lat": 33.8670239, "lng": -78.6359793, "state": "River,"},{"name": "Stop N Grab", "lat": 33.8015038, "lng": -79.0778856, "state": "South"},{"name": "Stop N Grab", "lat": 33.6297356, "lng": -78.9633759, "state": "Beach,"},{"name": "Stop N Grab", "lat": 33.7605277, "lng": -78.860132, "state": "Beach,"},{"name": "Stop N Grab", "lat": 33.7994031, "lng": -79.01814379999999, "state": "South"},{"name": "Stop N Grab", "lat": 32.7840056, "lng": -79.9440236, "state": "South"},{"name": "Stop N Grab", "lat": 34.200249, "lng": -79.251019, "state": "South"},{"name": "Stop N Grab", "lat": 40.27854749999999, "lng": -76.8142938, "state": "Pennsylvania"},{"name": "Stop N Grab", "lat": 40.2793046, "lng": -76.8952548, "state": "Pennsylvania"},{"name": "Stop N Grab", "lat": 40.300878, "lng": -76.929113, "state": "Pennsylvania"},{"name": "Stop N Grab", "lat": 39.9158877, "lng": -76.6286147, "state": "Lion,"},{"name": "Stop N Grab", "lat": 40.5208425, "lng": -78.3964195, "state": "Pennsylvania"},{"name": "Stop N Grab", "lat": 39.8248458, "lng": -76.9880017, "state": "Pennsylvania"},{"name": "Stop N Grab", "lat": 40.330455, "lng": -76.855974, "state": "Pennsylvania"},{"name": "Stop N Grab", "lat": 40.222847, "lng": -76.86035799999999, "state": "Cumberland,"},{"name": "Stop N Grab", "lat": 40.314005, "lng": -76.5809, "state": "Pennsylvania"},{"name": "Stop N Grab", "lat": 40.32638, "lng": -76.049684, "state": "Spring,"},{"name": "Stop N Grab", "lat": 39.97863359999999, "lng": -76.6601567, "state": "Pennsylvania"},{"name": "Stop N Grab", "lat": 40.697136, "lng": -76.187664, "state": "Pennsylvania"},{"name": "Stop N Grab", "lat": 40.2672814, "lng": -76.84043319999999, "state": "Pennsylvania"},{"name": "Stop N Grab", "lat": 40.26125469999999, "lng": -76.8807381, "state": "Pennsylvania"},{"name": "Stop N Grab", "lat": 40.260939, "lng": -76.856191, "state": "Pennsylvania"},{"name": "Stop N Grab", "lat": 40.80656099999999, "lng": -77.891678, "state": "College,"},{"name": "Stop N Grab", "lat": 40.68487229999999, "lng": -76.1946806, "state": "Pennsylvania"},{"name": "Stop N Grab", "lat": 40.242439, "lng": -76.908255, "state": "Pennsylvania"},{"name": "Stop N Grab", "lat": 40.510893, "lng": -78.4022037, "state": "Pennsylvania"},{"name": "Stop N Grab", "lat": 40.339894, "lng": -76.412195, "state": "Pennsylvania"},{"name": "Stop N Grab", "lat": 41.248991, "lng": -76.96372199999999, "state": "Pennsylvania"},{"name": "Stop N Grab", "lat": 39.9618779, "lng": -76.729056, "state": "Pennsylvania"},{"name": "Stop N Grab", "lat": 39.893542, "lng": -76.17002099999999, "state": "Pennsylvania"},{"name": "Stop N Grab", "lat": 40.043807, "lng": -76.723788, "state": "Pennsylvania"},{"name": "Stop N Grab", "lat": 40.782024, "lng": -77.852584, "state": "College,"},{"name": "Stop N Grab", "lat": 40.240191, "lng": -76.935435, "state": "Hill,"},{"name": "Stop N Grab", "lat": 39.828097, "lng": -77.237298, "state": "Pennsylvania"},{"name": "Stop N Grab", "lat": 40.200873, "lng": -76.72488, "state": "Pennsylvania"},{"name": "Stop N Grab", "lat": 40.043211, "lng": -76.289163, "state": "Pennsylvania"},{"name": "Stop N Grab", "lat": 39.8667871, "lng": -77.04218279999999, "state": "Oxford,"},{"name": "Stop N Grab", "lat": 40.2338605, "lng": -76.8386273, "state": "Pennsylvania"},{"name": "Stop N Grab", "lat": 40.5972419, "lng": -78.3219515, "state": "Pennsylvania"},{"name": "Stop N Grab", "lat": 41.0522909, "lng": -76.2393862, "state": "Pennsylvania"},{"name": "Stop N Grab", "lat": 40.193652, "lng": -76.980076, "state": "Pennsylvania"},{"name": "Stop N Grab", "lat": 39.908324, "lng": -77.550753, "state": "Pennsylvania"},{"name": "Stop N Grab", "lat": 40.338446, "lng": -76.430533, "state": "Pennsylvania"},{"name": "Stop N Grab", "lat": 40.778098, "lng": -76.228856, "state": "Pennsylvania"},{"name": "Stop N Grab", "lat": 41.24744, "lng": -76.916085, "state": "Pennsylvania"},{"name": "Stop N Grab", "lat": 39.8852738, "lng": -76.8609444, "state": "Grove,"},{"name": "Stop N Grab", "lat": 40.1952032, "lng": -77.18939230000001, "state": "Pennsylvania"},{"name": "Stop N Grab", "lat": 40.3713948, "lng": -76.18946199999999, "state": "Pennsylvania"},{"name": "Stop N Grab", "lat": 40.914303, "lng": -77.76323900000001, "state": "Pennsylvania"},{"name": "Stop N Grab", "lat": 39.8962856, "lng": -76.62280899999999, "state": "Lion,"},{"name": "Stop N Grab", "lat": 40.681411, "lng": -76.25441699999999, "state": "Pennsylvania"},{"name": "Stop N Grab", "lat": 39.91067, "lng": -76.706124, "state": "Pennsylvania"},{"name": "Stop N Grab", "lat": 40.786251, "lng": -77.832602, "state": "College,"},{"name": "Stop N Grab", "lat": 41.0117705, "lng": -76.413686, "state": "Pennsylvania"},{"name": "Stop N Grab", "lat": 40.28317, "lng": -76.6577026, "state": "Pennsylvania"},{"name": "Stop N Grab", "lat": 40.21648, "lng": -76.991715, "state": "Pennsylvania"},{"name": "Stop N Grab", "lat": 40.191323, "lng": -77.16139799999999, "state": "Pennsylvania"},{"name": "Stop N Grab", "lat": 39.935115, "lng": -77.6536096, "state": "Pennsylvania"},{"name": "Stop N Grab", "lat": 40.4797553, "lng": -78.0141, "state": "Pennsylvania"},{"name": "Stop N Grab", "lat": 40.12851300000001, "lng": -77.020382, "state": "Pennsylvania"},{"name": "Stop N Grab", "lat": 41.244014, "lng": -77.004104, "state": "Pennsylvania"},{"name": "Stop N Grab", "lat": 40.0306626, "lng": -76.4757435, "state": "Pennsylvania"},{"name": "Stop N Grab", "lat": 40.33766749999999, "lng": -76.4847994, "state": "Pennsylvania"},{"name": "Stop N Grab", "lat": 40.5460161, "lng": -74.4265325, "state": "New"},{"name": "Stop N Grab", "lat": 40.658706, "lng": -75.41833, "state": "Pennsylvania"},{"name": "Stop N Grab", "lat": 40.1601217, "lng": -74.84915459999999, "state": "Pennsylvania"},{"name": "Stop N Grab", "lat": 40.144997, "lng": -75.11528, "state": "Grove,"},{"name": "Stop N Grab", "lat": 40.6441988, "lng": -75.3481922, "state": "Pennsylvania"},{"name": "Stop N Grab", "lat": 40.2189701, "lng": -75.246887, "state": "Wales,"},{"name": "Stop N Grab", "lat": 39.9623396, "lng": -75.17267609999999, "state": "Pennsylvania"},{"name": "Stop N Grab", "lat": 40.564394, "lng": -76.0076926, "state": "Pennsylvania"},{"name": "Stop N Grab", "lat": 40.0505567, "lng": -75.5246818, "state": "Pennsylvania"},{"name": "Stop N Grab", "lat": 40.040167, "lng": -75.057343, "state": "Pennsylvania"},{"name": "Stop N Grab", "lat": 39.94373849999999, "lng": -75.5916189, "state": "Chester,"},{"name": "Stop N Grab", "lat": 40.0405869, "lng": -75.2235695, "state": "Pennsylvania"},{"name": "Stop N Grab", "lat": 40.624688, "lng": -75.442477, "state": "Pennsylvania"},{"name": "Stop N Grab", "lat": 39.9500032, "lng": -74.98595139999999, "state": "Shade,"},{"name": "Stop N Grab", "lat": 39.96764659999999, "lng": -75.5763372, "state": "Chester,"},{"name": "Stop N Grab", "lat": 40.0556438, "lng": -75.0904096, "state": "Pennsylvania"},{"name": "Stop N Grab", "lat": 39.9836312, "lng": -75.10075379999999, "state": "Pennsylvania"},{"name": "Stop N Grab", "lat": 40.2696496, "lng": -75.2550232, "state": "Pennsylvania"},{"name": "Stop N Grab", "lat": 40.622646, "lng": -75.3607, "state": "Pennsylvania"},{"name": "Stop N Grab", "lat": 40.0107452, "lng": -75.2953126, "state": "Pennsylvania"},{"name": "Stop N Grab", "lat": 40.0395719, "lng": -75.0326984, "state": "Pennsylvania"},{"name": "Stop N Grab", "lat": 40.680561, "lng": -75.248296, "state": "Pennsylvania"},{"name": "Stop N Grab", "lat": 40.5822392, "lng": -75.5230909, "state": "Pennsylvania"},{"name": "Stop N Grab", "lat": 40.1410842, "lng": -75.38935150000002, "state": "Pennsylvania"},{"name": "Stop N Grab", "lat": 39.9489285, "lng": -75.1513458, "state": "Pennsylvania"},{"name": "Stop N Grab", "lat": 40.0358817, "lng": -75.5717746, "state": "Pennsylvania"},{"name": "Stop N Grab", "lat": 40.4617373, "lng": -74.4005485, "state": "River,"},{"name": "Stop N Grab", "lat": 40.389156, "lng": -75.935637, "state": "Pennsylvania"},{"name": "Stop N Grab", "lat": 40.106277, "lng": -75.00027, "state": "Pennsylvania"},{"name": "Stop N Grab", "lat": 40.0552797, "lng": -75.64711679999999, "state": "Pennsylvania"},{"name": "Stop N Grab", "lat": 40.044477, "lng": -75.392782, "state": "Pennsylvania"},{"name": "Stop N Grab", "lat": 40.0122106, "lng": -75.2618937, "state": "Pennsylvania"},{"name": "Stop N Grab", "lat": 40.228457, "lng": -75.314585, "state": "Pennsylvania"},{"name": "Stop N Grab", "lat": 40.4608228, "lng": -74.5071984, "state": "Brunswick"},{"name": "Stop N Grab", "lat": 40.635666, "lng": -75.39529999999999, "state": "Pennsylvania"},{"name": "Stop N Grab", "lat": 39.93462, "lng": -75.06866, "state": "Township,"},{"name": "Stop N Grab", "lat": 40.566482, "lng": -75.552218, "state": "Pennsylvania"},{"name": "Stop N Grab", "lat": 40.1712863, "lng": -75.1293443, "state": "Pennsylvania"},{"name": "Stop N Grab", "lat": 39.8470749, "lng": -75.18363529999999, "state": "Deptford,"},{"name": "Stop N Grab", "lat": 40.1057475, "lng": -75.1248164, "state": "Pennsylvania"},{"name": "Stop N Grab", "lat": 40.5770325, "lng": -74.2870243, "state": "Woodbridge"},{"name": "Stop N Grab", "lat": 40.6730939, "lng": -74.1995853, "state": "New"},{"name": "Stop N Grab", "lat": 39.97720150000001, "lng": -75.11849889999999, "state": "Pennsylvania"},{"name": "Stop N Grab", "lat": 40.0300055, "lng": -75.0561969, "state": "Pennsylvania"},{"name": "Stop N Grab", "lat": 40.1658608, "lng": -75.2925643, "state": "Square,"},{"name": "Stop N Grab", "lat": 39.9524986, "lng": -75.2574879, "state": "Pennsylvania"},{"name": "Stop N Grab", "lat": 40.1528108, "lng": -75.34874599999999, "state": "Norriton,"},{"name": "Stop N Grab", "lat": 40.7228591, "lng": -74.25234859999999, "state": "New"},{"name": "Stop N Grab", "lat": 40.6509542, "lng": -75.4998332, "state": "Pennsylvania"},{"name": "Stop N Grab", "lat": 39.64066, "lng": -75.51638059999999, "state": "Township,"},{"name": "Stop N Grab", "lat": 40.1044925, "lng": -75.1648052, "state": "Pennsylvania"},{"name": "Stop N Grab", "lat": 40.71931, "lng": -75.28965, "state": "Pennsylvania"},{"name": "Stop N Grab", "lat": 40.122724, "lng": -75.135678, "state": "Pennsylvania"},{"name": "Stop N Grab", "lat": 40.093052, "lng": -76.35157, "state": "Petersburg,"},{"name": "Stop N Grab", "lat": 40.0170651, "lng": -75.3221166, "state": "Mawr,"},{"name": "Stop N Grab", "lat": 39.7190618, "lng": -75.112993, "state": "New"},{"name": "Stop N Grab", "lat": 40.313488, "lng": -75.32841499999999, "state": "Pennsylvania"},{"name": "Stop N Grab", "lat": 39.9578192, "lng": -75.6027508, "state": "Chester,"},{"name": "Stop N Grab", "lat": 39.9542012, "lng": -75.1674658, "state": "Pennsylvania"},{"name": "Stop N Grab", "lat": 40.6206341, "lng": -74.0288915, "state": "York"},{"name": "Stop N Grab", "lat": 40.4078883, "lng": -74.3866536, "state": "Brunswick,"},{"name": "Stop N Grab", "lat": 39.9576645, "lng": -75.1914187, "state": "Pennsylvania"},{"name": "Stop N Grab", "lat": 39.9602339, "lng": -75.1675989, "state": "Pennsylvania"},{"name": "Stop N Grab", "lat": 40.7705869, "lng": -74.2443207, "state": "Orange,"},{"name": "Stop N Grab", "lat": 40.4438235, "lng": -74.2995861, "state": "Bridge,"},{"name": "Stop N Grab", "lat": 39.35977949999999, "lng": -74.428219, "state": "City,"},{"name": "Stop N Grab", "lat": 39.9233669, "lng": -75.16271259999999, "state": "Pennsylvania"},{"name": "Stop N Grab", "lat": 40.86596249999999, "lng": -74.1585897, "state": "New"},{"name": "Stop N Grab", "lat": 40.1347519, "lng": -74.8844285, "state": "Pennsylvania"},{"name": "Stop N Grab", "lat": 40.2244293, "lng": -75.096057, "state": "Pennsylvania"},{"name": "Stop N Grab", "lat": 39.706855, "lng": -75.1146151, "state": "New"},{"name": "Stop N Grab", "lat": 40.92422579999999, "lng": -74.1429201, "state": "New"},{"name": "Stop N Grab", "lat": 39.923077, "lng": -75.18532160000001, "state": "Pennsylvania"},{"name": "Stop N Grab", "lat": 40.6737877, "lng": -74.2247182, "state": "New"},{"name": "Stop N Grab", "lat": 40.586151, "lng": -74.4185438, "state": "Plainfield,"},{"name": "Stop N Grab", "lat": 40.42915259999999, "lng": -74.3834741, "state": "Brunswick,"},{"name": "Stop N Grab", "lat": 39.4062523, "lng": -75.03961420000002, "state": "New"},{"name": "Stop N Grab", "lat": 40.56018, "lng": -74.44675389999999, "state": "New"},{"name": "Stop N Grab", "lat": 39.954868, "lng": -75.2067316, "state": "Pennsylvania"},{"name": "Stop N Grab", "lat": 39.9819834, "lng": -75.15618470000001, "state": "Pennsylvania"},{"name": "Stop N Grab", "lat": 39.9526928, "lng": -75.1558369, "state": "Pennsylvania"},{"name": "Stop N Grab", "lat": 39.9844871, "lng": -75.1570462, "state": "Pennsylvania"},{"name": "Stop N Grab", "lat": 39.956126, "lng": -75.1633542, "state": "Pennsylvania"},{"name": "Stop N Grab", "lat": 39.90463219999999, "lng": -75.0411031, "state": "New"},{"name": "Stop N Grab", "lat": 40.5738277, "lng": -74.6370913, "state": "New"},{"name": "Stop N Grab", "lat": 39.9960163, "lng": -75.3024133, "state": "Pennsylvania"},{"name": "Stop N Grab", "lat": 40.6919975, "lng": -74.1846001, "state": "New"},{"name": "Stop N Grab", "lat": 40.849442, "lng": -74.079516, "state": "New"},{"name": "Stop N Grab", "lat": 40.1776743, "lng": -75.1064334, "state": "Pennsylvania"},{"name": "Stop N Grab", "lat": 40.5178744, "lng": -74.3778804, "state": "New"},{"name": "Stop N Grab", "lat": 40.6988673, "lng": -74.28159810000001, "state": "New"},{"name": "Stop N Grab", "lat": 40.0544216, "lng": -75.1261962, "state": "Pennsylvania"},{"name": "Stop N Grab", "lat": 40.5266343, "lng": -74.3857426, "state": "New"},{"name": "Stop N Grab", "lat": 40.8997839, "lng": -74.1154217, "state": "Park,"},{"name": "Stop N Grab", "lat": 40.0051609, "lng": -74.1501731, "state": "River,"},{"name": "Stop N Grab", "lat": 40.7950991, "lng": -74.199426, "state": "New"},{"name": "Stop N Grab", "lat": 40.5095901, "lng": -74.4099426, "state": "New"},{"name": "Stop N Grab", "lat": 40.49483499999999, "lng": -74.4442047, "state": "Brunswick,"},{"name": "Stop N Grab", "lat": 39.9476212, "lng": -75.07213589999999, "state": "New"},{"name": "Stop N Grab", "lat": 40.2582695, "lng": -74.2739316, "state": "New"},{"name": "Stop N Grab", "lat": 39.9368104, "lng": -75.1611241, "state": "Pennsylvania"},{"name": "Stop N Grab", "lat": 39.9986789, "lng": -75.10880709999999, "state": "Pennsylvania"},{"name": "Stop N Grab", "lat": 39.9437761, "lng": -74.073003, "state": "Heights,"},{"name": "Stop N Grab", "lat": 40.75296489999999, "lng": -74.2095282, "state": "Orange,"},{"name": "Stop N Grab", "lat": 40.0084728, "lng": -75.1935148, "state": "Pennsylvania"},{"name": "Stop N Grab", "lat": 40.3521217, "lng": -74.65019869999999, "state": "New"},{"name": "Stop N Grab", "lat": 39.9828075, "lng": -75.37310459999999, "state": "Pennsylvania"},{"name": "Stop N Grab", "lat": 40.4153016, "lng": -74.1595482, "state": "New"},{"name": "Stop N Grab", "lat": 39.9336783, "lng": -75.0296075, "state": "Hill,"},{"name": "Stop N Grab", "lat": 39.9236882, "lng": -74.9990521, "state": "Hill,"},{"name": "Stop N Grab", "lat": 40.2108152, "lng": -74.0912398, "state": "Township,"},{"name": "Stop N Grab", "lat": 40.1585839, "lng": -74.8135744, "state": "Pennsylvania"},{"name": "Stop N Grab", "lat": 40.5862078, "lng": -74.0919784, "state": "York"},{"name": "Stop N Grab", "lat": 40.6466542, "lng": -74.3645664, "state": "New"},{"name": "Stop N Grab", "lat": 39.429597, "lng": -75.2440459, "state": "New"},{"name": "Stop N Grab", "lat": 40.0510358, "lng": -75.2358433, "state": "Pennsylvania"},{"name": "Stop N Grab", "lat": 40.1985711, "lng": -74.7495136, "state": "New"}]